name	score	station	tel	address	latitude	longitude	open_time	closed_days	sheets	url	icon_url	x	delegate1	delegate2	geometry
麺屋ひょっとこ 交通会館店	3.78	有楽町駅	03-3211-6002	東京都千代田区有楽町2-10-1 東京交通会館 B1F	35.675099718382555	139.76447836168614	[平日]11:00～20:00[土]11:00～19:00※売り切れ次第終了	日・祝	7席 （カウンターのみ）	https://tabelog.com/tokyo/A1301/A130102/13046637/	https://tblg.k-img.com/resize/640x640c/restaurant/images/Rvw/102294/102294618.jpg?token=197b3f1&api=v2	1	1	0	POINT (139.7644783616861 35.67509971838255)
むぎとオリーブ 銀座店	3.78	東銀座駅	03-3571-2123	東京都中央区銀座6-12-12 銀座ステラビル 1F	35.668956483191664	139.7642844939659	【平日】11:30～22:00（L.O.21:45）【土・祝】11:30～21:00（L.O.20:45）※いずれもスープ無くなり次第終了※基本的には通し営業ですが、仕込みの都合上15:30より2時間程、店を閉める場合もございます。	日曜日	15席 （カウンター15席）	https://tabelog.com/tokyo/A1301/A130101/13164932/	https://tblg.k-img.com/resize/640x640c/restaurant/images/Rvw/85187/85187148.jpg?token=71fafd0&api=v2	1	1	1	POINT (139.7642844939659 35.66895648319166)
麺処 銀笹 （ぎんざさ）	3.78	築地市場駅	03-3543-0280	東京都中央区銀座8-15-2 藤ビル 1F	35.66622509335693	139.76340747033856	11:30～15:0017:30～22:00	日曜・祝日	18席 （４人掛けテーブル４卓、２人掛けテーブル１卓）	https://tabelog.com/tokyo/A1301/A130103/13119563/	https://tblg.k-img.com/resize/640x640c/restaurant/images/Rvw/79247/79247813.jpg?token=616984d&api=v2	1	1	1	POINT (139.7634074703386 35.66622509335693)
銀座 朧月 （おぼろづき）	3.77	銀座駅	非公開	東京都中央区銀座6-3-5 第一高橋ビル 1F	35.67158170760406	139.76140211247727	【月・火・水】11:30～15:3017:30～22:00【木・金】11:30〜15:3017:30〜23:00【土・祝】11:30～15:3017:30～22:00【日】11:30～15:3017:30～22:00※スープがなくなり次第終了	第１週土曜日	7席 （カウンターのみ）	https://tabelog.com/tokyo/A1301/A130101/13118141/	https://tblg.k-img.com/resize/640x640c/restaurant/images/Rvw/11357/11357832.jpg?token=99da07f&api=v2	1	1	0	POINT (139.7614021124773 35.67158170760406)
新橋 纏 （まとい）	3.77	新橋駅	03-3436-6003	東京都港区新橋3-13-2 IKENO-5 1F	35.665865840934096	139.75629807731355	【平日】11:00～15:0017:30～22:00【土】11:00～15:0017:30～21:00【日・祝】11:00〜15:0017:30〜20:00	無休	9席 （カウンター席のみ）	https://tabelog.com/tokyo/A1301/A130103/13156937/	https://tblg.k-img.com/resize/640x640c/restaurant/images/Rvw/43565/43565212.jpg?token=7747ece&api=v2	1	1	0	POINT (139.7562980773135 35.6658658409341)
自家製麺 伊藤 銀座店	3.76	東銀座駅	03-6274-6445	東京都中央区銀座6-12-2 東京銀座ビルディング B1F	35.66929673542866	139.76490581558826	[月～金]11:00～23:00(売切れ仕舞)[土・日・祝]11:00～20:00(売切れ仕舞)	無休(年末年始を除く)	13席 （カウンター5席、テーブル４人掛け×１席・２人掛け席×２席）	https://tabelog.com/tokyo/A1301/A130101/13164387/	https://tblg.k-img.com/resize/640x640c/restaurant/images/Rvw/44147/44147420.jpg?token=d822b7d&api=v2	1	0	0	POINT (139.7649058155883 35.66929673542866)
東京スタイルみそらーめん ど・みそ 京橋本店	3.73	銀座一丁目駅	03-6904-3700	東京都中央区京橋3-4-3 千成ビル　１Ｆ	35.675390585722866	139.7682063720165	[月～金]11:00～22:30(L.O)[土・日・祝]11:00～21:00(L.O)全日、中休み無しの通し営業です	無休	12席 （カウンターのみ）	https://tabelog.com/tokyo/A1301/A130101/13031470/	https://tblg.k-img.com/resize/640x640c/restaurant/images/Rvw/26984/26984422.jpg?token=e0fef0a&api=v2	1	1	0	POINT (139.7682063720165 35.67539058572287)
麺屋 武一 （たけいち）	3.73	新橋駅	03-5510-8908	東京都港区新橋3-6-13 新橋池野第3ビル 1F	35.666207175294424	139.7552664806052	[平日]11:30～16:00（L.O.15:55）17:30～翌2:00（L.O.翌1:50）[土・祝]11:30～18:00（L.O.17:55）※スープ切れ次第終了する場合あり	日曜	20席 （カウンター４席、４人掛けテーブル２卓、２人掛けテーブル４卓）	https://tabelog.com/tokyo/A1301/A130103/13143712/	https://tblg.k-img.com/resize/640x640c/restaurant/images/Rvw/68258/68258224.jpg?token=59bbfba&api=v2	1	0	0	POINT (139.7552664806052 35.66620717529442)
銀座 風見 （ギンザ カザミ）	3.73	銀座駅	03-3572-0737	東京都中央区銀座6-4-13 浅黄ビル 1F	35.671208968224995	139.7613179699602	【平日・土】11:30～15:20（L.O.）17:30～22:00（L.O.）【祝】11:30～20:00（L.O.）	日曜	8席 （カウンター8席）	https://tabelog.com/tokyo/A1301/A130101/13197387/	https://tblg.k-img.com/resize/640x640c/restaurant/images/Rvw/75327/75327230.jpg?token=d10b828&api=v2	1	0	0	POINT (139.7613179699602 35.671208968225)
SHIBIRE NOODLES 蝋燭屋 （シビレヌードルロウソクヤ）	3.72	銀座駅	03-6263-2970	東京都中央区銀座3-5-16 第一島田ビル 1F	35.67270861210846	139.76601612184396	11:00～15:00(L.O) 17:00～21:00(L.O)	日曜	14席 （カウンター14席）	https://tabelog.com/tokyo/A1301/A130101/13214085/	https://tblg.k-img.com/resize/640x640c/restaurant/images/Rvw/74895/74895427.jpg?token=83e179b&api=v2	1	0	0	POINT (139.766016121844 35.67270861210846)
支那麺 はしご 本店 （橋悟）	3.70	銀座駅	03-3571-1750	東京都中央区銀座6-3-5 第二ソワレ･ド･ビル 1F	35.67161392646259	139.76140683282404	[月～金]11:00～翌5:00[土・日・祝]11:00～21:00(L.O.20:50)	無休	24席 （カウンターのみ）	https://tabelog.com/tokyo/A1301/A130101/13092185/	https://tblg.k-img.com/resize/640x640c/restaurant/images/Rvw/110504/110504258.jpg?token=1fb6c98&api=v2	1	0	0	POINT (139.761406832824 35.67161392646259)
銀座 八五 （はちごう）	3.70	東銀座駅	050-5596-6139	東京都中央区銀座3-14-2 第一はなぶさビル 1F	35.67053669419104	139.77013782398055	11：00~15：0017：00~21：00※スープがなくなり次第、営業終了とさせていただきます。【夏季休業のお知らせ】2019年8月19日(月)～8月23(金)を夏季休業とさせて頂きます。	［毎週水曜日］［第2第4木曜日】	6席 （カウンターのみ）	https://tabelog.com/tokyo/A1301/A130101/13228602/	https://tblg.k-img.com/resize/640x640c/restaurant/images/Rvw/100178/100178274.jpg?token=a9038c2&api=v2	1	1	0	POINT (139.7701378239805 35.67053669419104)
銀座鴨そば 九代目けいすけ 銀座店	3.69	東銀座駅	03-6274-6655	東京都中央区銀座6-12-15 いちご銀座612ビル 1F	35.6692734011902	139.7647111106106	11:00～23:00(L.O.22:45)	年中無休	18席 （カウンター10席、テーブル8席）	https://tabelog.com/tokyo/A1301/A130101/13171787/	https://tblg.k-img.com/resize/640x640c/restaurant/images/Rvw/40054/40054730.jpg?token=c640536&api=v2	1	0	0	POINT (139.7647111106106 35.6692734011902)
麺家 いし川	3.68	新橋駅	03-3432-0230	東京都港区西新橋2-23-2 日比谷パークビル 1F	35.665596373666666	139.75334139082838	[月～土]11:00～15:00[月～金]17:00～22:00（L.O.21:30）	日曜	12席 （カウンター席のみ）	https://tabelog.com/tokyo/A1301/A130103/13139811/	https://tblg.k-img.com/resize/640x640c/restaurant/images/Rvw/118588/118588655.jpg?token=6c34115&api=v2	1	0	0	POINT (139.7533413908284 35.66559637366667)
らぁめん ほりうち 新橋店	3.67	新橋駅	03-6435-8970	東京都港区新橋3-19-4 桜井ビル 1F	35.66486884387409	139.757498979066	［月～木］7:00〜翌3:00［金］7:00〜翌4:30［土］11:00〜翌3:00［日・祝］11:00〜23:00	無休	22席 （カウンター14席／テーブル2卓8席）	https://tabelog.com/tokyo/A1301/A130103/13156562/	https://tblg.k-img.com/resize/640x640c/restaurant/images/Rvw/81893/81893243.jpg?token=3e6dd9c&api=v2	1	0	0	POINT (139.757498979066 35.66486884387409)
タンメンしゃきしゃき 新橋店	3.67	新橋駅	050-5592-9351	東京都港区新橋4-6-7	35.66471345609261	139.75583428000093	［月～金］11:00～23:30［土・日・祝］11:00～22:00	無休	17席 （カウンター11席、テーブル2人用×3）	https://tabelog.com/tokyo/A1301/A130103/13126066/	https://tblg.k-img.com/resize/640x640c/restaurant/images/Rvw/59454/59454823.jpg?token=13e9681&api=v2	1	0	0	POINT (139.7558342800009 35.66471345609261)
きたかた食堂	3.67	新橋駅	不明の為情報お待ちしております	東京都港区新橋5-9-8 永島ビル 1F	35.663632733037595	139.75552991059274	月〜金07:00〜16:00土07:00〜15:00祝日も営業スープ切れ次第終了	日曜のみ	13席 （カウンター9席）	https://tabelog.com/tokyo/A1301/A130103/13194993/	https://tblg.k-img.com/resize/640x640c/restaurant/images/Rvw/117765/117765198.jpg?token=131ed55&api=v2	1	0	0	POINT (139.7555299105927 35.66363273303759)
ふぐだし潮 八代目けいすけ	3.66	銀座駅	03-6228-5033	東京都中央区銀座5-2-1 東急プラザ銀座 B2F	35.671949735647345	139.76208065029118	11:00～23:00（L.O.22:45）	不定休(東急プラザ銀座に準ずる)	25席	https://tabelog.com/tokyo/A1301/A130101/13193770/	https://tblg.k-img.com/resize/640x640c/restaurant/images/Rvw/51425/51425854.jpg?token=d62ae78&api=v2	1	0	0	POINT (139.7620806502912 35.67194973564735)
カシムラ	3.66	汐留駅	03-3434-5855	東京都港区東新橋2-10-2 中銀新橋マンシオン 101	35.66134132909847	139.75653965445625	[平日]11:00～15:0017:30～21:00[土曜]11:00～15:00※いずれの営業時間も材料切れ次第終了	日曜日・祝日	11席 （カウンター7席、テーブル4席）	https://tabelog.com/tokyo/A1301/A130103/13169052/	https://tblg.k-img.com/resize/640x640c/restaurant/images/Rvw/49425/49425805.jpg?token=fc90681&api=v2	1	0	0	POINT (139.7565396544562 35.66134132909847)
銀座 魄瑛	3.66	東銀座駅	03-3542-6190	東京都中央区銀座4-10-1 HOLON GINZA 2F	35.67075440318862	139.76753330803936	11:30～15:30(L.O.15:00)16:30～19:30(L.O.19:00)	日曜、月曜	6席 （カウンター6席）	https://tabelog.com/tokyo/A1301/A130101/13222484/	https://tblg.k-img.com/resize/640x640c/restaurant/images/Rvw/117228/117228024.jpg?token=69162bf&api=v2	1	0	0	POINT (139.7675333080394 35.67075440318862)
らーめん一郎	3.65	銀座駅	03-6263-0916	東京都中央区銀座3-2-13 江戸常ビルＢ1Ｆ	35.673026887640155	139.76465594237496	平日、 11:00～23:00(L.O22:40)土曜、 11:00～22:00(L.O21:40)日曜、祭日11:00～21:00(L.O22:40）但し、スープが無くなる次第、営業終了。	不定休	7席 （カウンター7席）	https://tabelog.com/tokyo/A1301/A130101/13203526/	https://tblg.k-img.com/resize/640x640c/restaurant/images/Rvw/62250/62250070.jpg?token=4046f8f&api=v2	1	0	0	POINT (139.764655942375 35.67302688764016)
煮干麺 新橋 月と鼈	3.65	新橋駅	03-3433-8103	東京都港区新橋3-14-6 駒場ビル 1F	35.66550448563605	139.7560083957868	11:30～16:00／18:00～22:00	日曜日		https://tabelog.com/tokyo/A1301/A130103/13203825/	https://tblg.k-img.com/resize/640x640c/restaurant/images/Rvw/117840/117840356.jpg?token=f1c9622&api=v2	1	0	0	POINT (139.7560083957868 35.66550448563605)
田中そば店 新橋店	3.65	内幸町駅	03-6550-8766	東京都港区西新橋1-18-10 佐々木ビル 1F	35.66742395298017	139.75317048754346	11:00～16:00,17:00～21:00(土祝11:00～16:00)	土日祝日定休	10席 （カウンター10席）	https://tabelog.com/tokyo/A1301/A130103/13211386/	https://tblg.k-img.com/resize/640x640c/restaurant/images/Rvw/92311/92311933.jpg?token=ec131c5&api=v2	1	0	0	POINT (139.7531704875435 35.66742395298017)
焼きあご塩らー麺たかはし 銀座店	3.64	東銀座駅	03-6263-9438	東京都中央区銀座5-10-10 オリジナル第一ビル1Ｆ	35.66975530405972	139.76528187435437	[月～土・祝日前]11：00～翌4：00[日・祝]11：00～23：00（L.O22：45）※日曜日が祝前日の場合を除く【2019ゴールデンウィーク特別営業のお知らせ】4月27日～5月5日11：00～翌4：00まで営業5月6日(祝）11：00～23：00まで営業	年中無休	10席 （カウンターのみ）	https://tabelog.com/tokyo/A1301/A130101/13212146/	https://tblg.k-img.com/resize/640x640c/restaurant/images/Rvw/80757/80757186.jpg?token=a924973&api=v2	1	0	0	POINT (139.7652818743544 35.66975530405972)
銀座 篝 本店 （カガリ）	3.64	銀座駅	03-6263-8900	東京都中央区銀座6-4-12 1F	35.6712400774738	139.76140185045048	11:00〜15:30、17:30〜?	不定休	17席	https://tabelog.com/tokyo/A1301/A130101/13230021/	https://tblg.k-img.com/resize/640x640c/restaurant/images/Rvw/119696/119696507.jpg?token=59f7443&api=v2	1	0	0	POINT (139.7614018504505 35.6712400774738)
麺屋 味方	3.64	新橋駅	不明の為情報お待ちしております	東京都港区新橋4-6-10	35.66473622707317	139.755584577468	【朝の部】　※まかないサンド&ホットコーヒーのみ　 [月･火･木･金]　07:00〜09:00【昼&夜の部】　[月～金]　11:00～16:00 (L.O.15:45), 18:00～21:00 (L.O.20:45)　[土] 　10:00～14:00　[祝] 　不定(公式Instagramを要確認)臨休･時間変更等が頻繁にあるので公式Instagram要確認	日曜日	6席	https://tabelog.com/tokyo/A1301/A130103/13220344/	https://tblg.k-img.com/resize/640x640c/restaurant/images/Rvw/116365/116365550.jpg?token=3de0d33&api=v2	1	0	0	POINT (139.755584577468 35.66473622707317)
萬福 （まんぷく）	3.63	東銀座駅	03-3541-7210	東京都中央区銀座2-13-13	35.67128132523413	139.76947756675287	[月～金]11:00～15:30(L.O.15:00) 17:00～23:00(L.O.22:30)[土]11:00～15:30(L.O.15:00) 17:00～22:00(L.O)	日曜・祝日の月曜	27席 （カウンター7席、テーブル席20席）	https://tabelog.com/tokyo/A1301/A130101/13002324/	https://tblg.k-img.com/resize/640x640c/restaurant/images/Rvw/96264/96264352.jpg?token=3e0a8cf&api=v2	1	0	0	POINT (139.7694775667529 35.67128132523413)
麺屋ひょっとこ 銀座店	3.63	銀座駅	03-6263-8757	東京都中央区銀座6-3-15 銀座昭和イーティングビル 1F	35.67146224943619	139.76086923825702	[月～金]11:30～22:30[土]11:30～17:30	日曜日・祝日	9席	https://tabelog.com/tokyo/A1301/A130101/13222529/	https://tblg.k-img.com/resize/640x640c/restaurant/images/Rvw/106100/106100278.jpg?token=0988283&api=v2	1	0	0	POINT (139.760869238257 35.67146224943619)
孫作 （まごさく）	3.62	内幸町駅	03-6206-6646	東京都港区西新橋1-16-2	35.66776282527189	139.7542953785191	[月～金] 11:00～16:00(L.O.15:45) 17:30～22:00 [土] 11:00～16:00(L.O.15:45)	日曜日	15席 （カウンター9席、壁向きカウンター6席）	https://tabelog.com/tokyo/A1301/A130103/13222279/	https://tblg.k-img.com/resize/640x640c/restaurant/images/Rvw/112882/112882989.jpg?token=34f5de3&api=v2	1	0	0	POINT (139.7542953785191 35.66776282527189)
船見坂 （ふなみざか）	3.61	東銀座駅	03-5565-5541	東京都中央区銀座2-12-11	35.671384923080595	139.76935257235934	[月～金]11:00～翌4:00[土・日・祝]11:00～22:00	無休	17席 （カウンター9席、テーブル4席×2卓）	https://tabelog.com/tokyo/A1301/A130101/13004985/	https://tblg.k-img.com/resize/640x640c/restaurant/images/Rvw/114906/114906759.jpg?token=8f9fda1&api=v2	1	0	0	POINT (139.7693525723593 35.67138492308059)
らーめん バリ男	3.61	虎ノ門駅	03-6273-3933	東京都港区西新橋1-21-1	35.668467159486816	139.7522977342166	[月～金]11:00～23:00（昼休憩なし）[土・日・祝]11:00～15:0017:00～21:00	年中無休（年末年始除く）	12席 （L字カウンター（7席+5席））	https://tabelog.com/tokyo/A1301/A130103/13112970/	https://tblg.k-img.com/resize/640x640c/restaurant/images/Rvw/76270/76270284.jpg?token=12cf8d8&api=v2	1	0	0	POINT (139.7522977342166 35.66846715948682)
長浜屋台 やまちゃん 銀座店	3.59	東銀座駅	03-5565-1838	東京都中央区銀座3-11-10	35.67042139890304	139.7684293600656	[月～土]11:00～15:00(ランチタイム)15:00〜翌4:00(L.O.翌3:45)[祝]11:00～15:00(ランチタイム)15:00〜23:00	日曜	18席 （カウンター10席、テーブル2卓(4人×2)）	https://tabelog.com/tokyo/A1301/A130101/13004982/	https://tblg.k-img.com/resize/640x640c/restaurant/images/Rvw/1235/1235440.jpg?token=5a18ffc&api=v2	1	0	0	POINT (139.7684293600656 35.67042139890304)
香味徳 銀座店 （kamitoku）	3.59	銀座一丁目駅	03-3561-5190	東京都中央区銀座1-13-6 ヤマトビル　1F	35.673579415094096	139.76961106096908	11:00～23:00（L.O.22:30）	なし	11席 （カウンター１１席）	https://tabelog.com/tokyo/A1301/A130101/13112492/	https://tblg.k-img.com/resize/640x640c/restaurant/images/Rvw/41027/41027295.jpg?token=cab649a&api=v2	1	0	0	POINT (139.7696110609691 35.6735794150941)
共楽 （きょうらく）	3.59	銀座一丁目駅	03-3541-7686	東京都中央区銀座2-10-12	35.672107325425294	139.76818541381326	[月～金]11:00～18:00[土]11:00～16:00	日曜日・祝日	18席 （カウンター9席、テーブル席4×2席）	https://tabelog.com/tokyo/A1301/A130101/13002327/	https://tblg.k-img.com/resize/640x640c/restaurant/images/Rvw/118638/118638949.jpg?token=5cbbdd6&api=v2	1	0	0	POINT (139.7681854138133 35.67210732542529)
博多長浜ラーメン 呑龍 （はかたながはまらーめんどんりゅう）	3.58	汐留駅	03-3575-1052	東京都港区東新橋1-2-13 川岸会館　１Ｆ	35.66454769637511	139.7590337441398	[月～金]11:00～翌4:30[土・日・祝]11:00～22:30頃	無休	23席 （カウンター7席、テーブル4卓(4人×4)）	https://tabelog.com/tokyo/A1301/A130103/13015066/	https://tblg.k-img.com/resize/640x640c/restaurant/images/Rvw/119514/119514399.jpg?token=6d72037&api=v2	1	0	0	POINT (139.7590337441398 35.66454769637511)
くるめや	3.58	内幸町駅	03-6268-8155	東京都港区西新橋1-18-11 ル・グラシエルビル15	35.66744723872055	139.75312088425454	[月～土]11:00～14:0017:00～22:00	日・祝日	11席 （カウンター11席）	https://tabelog.com/tokyo/A1301/A130103/13171524/	https://tblg.k-img.com/resize/640x640c/restaurant/images/Rvw/67524/67524669.jpg?token=1ec7657&api=v2	1	0	0	POINT (139.7531208842545 35.66744723872055)
駿 （シュン）	3.57	新橋駅	03-3436-2200	東京都港区新橋3-11-5 新橋グランディアビル 1F	35.66612413921163	139.75587282296058	11:30～14:0017:30～23:30			https://tabelog.com/tokyo/A1301/A130103/13164517/	https://tblg.k-img.com/resize/640x640c/restaurant/images/Rvw/23852/23852226.jpg?token=18a7c62&api=v2	1	0	0	POINT (139.7558728229606 35.66612413921163)
岡山中華そば 後楽本舗 （こうらくほんぽ）	3.56	新橋駅	03-3289-2055	東京都港区新橋2-18-2	35.667064093117794	139.7589897430457	[月～土]10:00～翌6:00[日曜日]11:30～20:00	無休	26席 （テーブル26席）	https://tabelog.com/tokyo/A1301/A130103/13011565/	https://tblg.k-img.com/resize/640x640c/restaurant/images/Rvw/103640/103640278.jpg?token=3da506e&api=v2	1	0	0	POINT (139.7589897430457 35.66706409311779)
麺屋虎杖 有楽町 （イタドリ）	3.56	有楽町駅	03-3215-3955	東京都千代田区有楽町2-10-1 東京交通会館 B1F	35.674986395161866	139.76436337645322	[月～土]11:00～22:30（22:00 LO）[日・祝]11:00～21:30（21:00 LO）	不定休	20席	https://tabelog.com/tokyo/A1301/A130102/13206372/	https://tblg.k-img.com/resize/640x640c/restaurant/images/Rvw/116360/116360666.jpg?token=b3f6700&api=v2	1	0	0	POINT (139.7643633764532 35.67498639516187)
中華三原 （ちゅうかみはら）	3.56	東銀座駅	03-3571-4359	東京都中央区銀座5-9-5	35.670320248901284	139.76558348996082	[月～金] 17:00～21:30[土]17:00～21:00	日・祝	18席 （カウンター8席、テーブル10席）	https://tabelog.com/tokyo/A1301/A130101/13007768/	https://tblg.k-img.com/resize/640x640c/restaurant/images/Rvw/118003/118003194.jpg?token=68bbf13&api=v2	1	0	0	POINT (139.7655834899608 35.67032024890128)
六厘舎	3.79	東京駅	03-3286-0166	東京都千代田区丸の内1-9-1 東京駅一番街 B1F 東京ラーメンストリート内	35.680144244411686	139.76823365088387	7:30～9:45（L.O.9:30）10:00～23:00（L.O.22:30）	年中無休	26席 （カウンター１０席　２人掛けテーブル席８卓）	https://tabelog.com/tokyo/A1302/A130201/13093047/	https://tblg.k-img.com/resize/640x640c/restaurant/images/Rvw/113486/113486206.jpg?token=ce0fdab&api=v2	1	1	1	POINT (139.7682336508839 35.68014424441169)
麺や 七彩 （しちさい）	3.78	八丁堀駅	03-5566-9355	東京都中央区八丁堀2-13-2	35.67718303495918	139.77627617484814	11:00～15:0017:00～21:00	第3火曜	13席 （カウンター席のみ）	https://tabelog.com/tokyo/A1302/A130203/13184399/	https://tblg.k-img.com/resize/640x640c/restaurant/images/Rvw/63978/63978429.jpg?token=444a29e&api=v2	1	1	0	POINT (139.7762761748481 35.67718303495918)
なな蓮	3.76	三越前駅	03-3516-6288	東京都中央区日本橋室町1-8-7 東信室町ビル 1F	35.68454307241642	139.7757814326225	当店では手作りにこだわり、お客様にご満足いただける商品を心がけております。そのため一日にご提供できる量に限りがございます。商品の品質を維持するため営業時間の変更をさせていただきます。ご理解のほど宜しくお願い致します。月～金曜11:00～スープ終了まで(約20:00目処)中休みは致しません。土、日、祝日11:00～スープ終了まで※ご心配な方はお電話にて確認下さい。	不定休	18席	https://tabelog.com/tokyo/A1302/A130202/13162497/	https://tblg.k-img.com/resize/640x640c/restaurant/images/Rvw/60726/60726806.jpg?token=e4c6582&api=v2	1	1	0	POINT (139.7757814326225 35.68454307241642)
トナリ 丸の内店	3.73	二重橋前駅	03-3240-6066	東京都千代田区丸の内2-7-3 東京ビルTOKIA B1F	35.67855240941701	139.76475206887545	11:00 ～ 21:45	無休	17席 （カウンターのみ）	https://tabelog.com/tokyo/A1302/A130201/13111899/	https://tblg.k-img.com/resize/640x640c/restaurant/images/Rvw/80738/80738434.jpg?token=c2ff5ee&api=v2	1	1	0	POINT (139.7647520688755 35.67855240941701)
麺 やまらぁ	3.73	人形町駅	非公開	東京都中央区日本橋人形町2-29-3	35.68691520009927	139.78489473321326	［月～金］11:00～15:00 17:00～22:00［土・日・祝］11:00～16:00	基本無休　夏季、年末年始等臨時休業は店頭並びに公式twitterアカウントにて告知します	10席 （カウンター10席）	https://tabelog.com/tokyo/A1302/A130204/13104793/	https://tblg.k-img.com/resize/640x640c/restaurant/images/Rvw/42467/42467338.jpg?token=c13f332&api=v2	1	1	0	POINT (139.7848947332133 35.68691520009927)
ソラノイロ ニッポン （ソラノイロ NIPPON）	3.71	東京駅	050-5597-4752	東京都千代田区丸の内1-9-1 東京駅一番街 B1F	35.68031894403737	139.7680097725446	8:30～23:00(L.O.22:30)朝ラー、ランチ営業、夜10時以降入店可、日曜営業	無休	26席	https://tabelog.com/tokyo/A1302/A130201/13183558/	https://tblg.k-img.com/resize/640x640c/restaurant/images/Rvw/46108/46108484.jpg?token=bb420ed&api=v2	1	0	0	POINT (139.7680097725446 35.68031894403737)
ソラノイロ トンコツ&キノコ	3.71	京橋駅	03-6262-3545	東京都中央区京橋2-2-1 京橋エドグラン B1F	35.67728818302792	139.7694942332465	[月～金] 11:00～16:30(L.O.16:00)18:00〜22:30(L.O.22:15)[土・日・祝] 11:00～15:30(L.O.15:00)	年中無休	20席	https://tabelog.com/tokyo/A1302/A130202/13202576/	https://tblg.k-img.com/resize/640x640c/restaurant/images/Rvw/87436/87436070.jpg?token=76b3dfb&api=v2	1	0	0	POINT (139.7694942332465 35.67728818302792)
crab台風。 （クラブタイフウ）	3.71	人形町駅	03-6667-0600	東京都中央区日本橋蛎殻町1-9-5 大鷲ビル1F	35.68335468932553	139.78155850755226	11:00～15:0017:00～21:00	無休（年末年始休みあり）	10席 （カウンター3+7席）	https://tabelog.com/tokyo/A1302/A130204/13222565/	https://tblg.k-img.com/resize/640x640c/restaurant/images/Rvw/117865/117865016.jpg?token=a6f7eeb&api=v2	1	1	0	POINT (139.7815585075523 35.68335468932553)
博多ラーメン しばらく 日本橋店	3.68	水天宮前駅	03-3665-0088	東京都中央区日本橋蛎殻町2-14-4	35.684633807553155	139.78661802846668	[月～土]11:00～翌1:00[日・祝]11:00～20:00	無休	32席 （２F席もあり、団体OK）	https://tabelog.com/tokyo/A1302/A130204/13008065/	https://tblg.k-img.com/resize/640x640c/restaurant/images/Rvw/105676/105676717.jpg?token=8f382be&api=v2	1	0	0	POINT (139.7866180284667 35.68463380755315)
ラーメン雷鳥 （サンダーバード）	3.68	茅場町駅	03-6661-7341	東京都中央区日本橋小網町4-4 カネカビル 1F	35.68170404079566	139.78203076655265	【平日】11:00～14:0017:00～22:00	土曜・日曜・祝日	16席 （カウンター6席、テーブル10席）	https://tabelog.com/tokyo/A1302/A130203/13142437/	https://tblg.k-img.com/resize/640x640c/restaurant/images/Rvw/48492/48492782.jpg?token=0b1bf4f&api=v2	1	0	0	POINT (139.7820307665527 35.68170404079566)
松戸富田麺絆	3.67	東京駅	03-6259-1133	東京都千代田区丸の内2-7-2 KITTE 丸の内 B1F	35.679840055399865	139.7650917036055	［月～金］11:00～22:00(L.O.)［土・日・祝］11:00～21:00(L.O.)	元日・法令点検日(※詳しくはお問合せください。)	27席	https://tabelog.com/tokyo/A1302/A130201/13232095/	https://tblg.k-img.com/resize/640x640c/restaurant/images/Rvw/103321/103321552.jpg?token=2d2340f&api=v2	1	0	0	POINT (139.7650917036055 35.67984005539986)
東京駅 斑鳩 （いかるが）	3.63	東京駅	03-3286-3586	東京都千代田区丸の内1-9-1 東京駅一番街 B1F	35.680263671909586	139.76799477633486	9:30～23:00(L.O.22:30)	無休	24席 （テーブル２卓）	https://tabelog.com/tokyo/A1302/A130201/13124609/	https://tblg.k-img.com/resize/640x640c/restaurant/images/Rvw/54925/54925644.jpg?token=b676516&api=v2	1	0	0	POINT (139.7679947763349 35.68026367190959)
昭和 （しょうわ）	3.62	茅場町駅	03-3249-0002	東京都中央区日本橋茅場町3-8-12 茅場町鈴藤ビル 1F	35.67772134043568	139.7779776754208	11:00～15:00／18:00～23:30（L.O.） 　売り切れ次第終了	土曜日、日曜日、祝日、年末年始休業	8席 （カウンター8席　お昼は10席・夜は8～9席 ）	https://tabelog.com/tokyo/A1302/A130203/13045473/	https://tblg.k-img.com/resize/640x640c/restaurant/images/Rvw/117707/117707519.jpg?token=67e69e3&api=v2	1	0	0	POINT (139.7779776754208 35.67772134043568)
人形町 兎屋	3.62	人形町駅	03-6264-8490	東京都中央区日本橋人形町3-9-2	35.68694514514883	139.78193220009493	11:00～15:00(L.O) 17:30～21:00(L.O)※売り切れ仕舞いあり		10席 （カウンター10席）	https://tabelog.com/tokyo/A1302/A130204/13207332/	https://tblg.k-img.com/resize/640x640c/restaurant/images/Rvw/117853/117853903.jpg?token=c07c0b1&api=v2	1	0	0	POINT (139.7819322000949 35.68694514514883)
ますたにラーメン 日本橋本店	3.61	日本橋駅	03-3272-8548	東京都中央区日本橋1-6-7 日本橋関谷ビル　 1Ｆ	35.682649934201386	139.77535933261916	[平日]10:30～23:00[土・日(第１日曜を除く)・祝]10:30～22:30[第１日曜]10:30～15:00	不定休	28席 （カウンター席のみ）	https://tabelog.com/tokyo/A1302/A130202/13000508/	https://tblg.k-img.com/resize/640x640c/restaurant/images/Rvw/116939/116939160.jpg?token=46305f3&api=v2	1	0	0	POINT (139.7753593326192 35.68264993420139)
神田らぁめん悠 （神田らぁめんHARUKA）	3.60	新日本橋駅	03-3274-5333	東京都中央区日本橋室町4-2-15 1F	35.68960190381129	139.77166209737058	[月～土] 11:00～24:00 [日・祝] 11:00～15:00	不定休	14席 （カウンター１４席）	https://tabelog.com/tokyo/A1302/A130202/13189756/	https://tblg.k-img.com/resize/640x640c/restaurant/images/Rvw/48135/48135494.jpg?token=39bf431&api=v2	1	0	0	POINT (139.7716620973706 35.68960190381129)
火の豚 人形町駅前店	3.60	人形町駅	不明の為情報お待ちしております	東京都中央区人形町3-7-14	35.68624521569149	139.7816847528714	［月～金］11:30～15:00（L.O.14:50）／17:00～21:00（L.O.20:50）［土］11:30～15:00（L.O.14:50）　※材料切れ次第終了	日曜日	7席 （カウンター席のみ）	https://tabelog.com/tokyo/A1302/A130204/13218617/	https://tblg.k-img.com/resize/640x640c/restaurant/images/Rvw/118127/118127652.jpg?token=aa38548&api=v2	1	0	0	POINT (139.7816847528714 35.68624521569149)
日本橋麺処こはる	3.60	三越前駅	03-6262-0732	東京都中央区日本橋室町1-13-5 1F	35.68633342057496	139.77487114801283	11:00～15:0017:00～21:00	日曜日（祝日は営業）	11席	https://tabelog.com/tokyo/A1302/A130202/13215661/	https://tblg.k-img.com/resize/640x640c/restaurant/images/Rvw/119386/119386327.jpg?token=d49ebfe&api=v2	1	0	0	POINT (139.7748711480128 35.68633342057496)
ひるがお 東京駅店	3.59	東京駅	03-3213-7000	東京都千代田区丸の内1-9-1 東京駅一番街 B1F 東京ラーメンストリート内	35.680226528692934	139.7683093960124	[月～日]10:30～23:30(L.O.23:00)	無休	22席 （カウンター*8、テーブル*14）	https://tabelog.com/tokyo/A1302/A130201/13093048/	https://tblg.k-img.com/resize/640x640c/restaurant/images/Rvw/114619/114619092.jpg?token=bbfbf3c&api=v2	1	0	0	POINT (139.7683093960124 35.68022652869293)
つじ田 日本橋八重洲店	3.59	日本橋駅	03-3527-9373	東京都中央区八重洲1-4-6 八重洲境井ビル 1F	35.682488219679406	139.77162937205983	[月～金］11:00～23:00［土・日・祝］11:00～21:00	不定休	16席 （カウンター席のみ）	https://tabelog.com/tokyo/A1302/A130202/13158035/	https://tblg.k-img.com/resize/640x640c/restaurant/images/Rvw/27796/27796870.jpg?token=e45611d&api=v2	1	1	0	POINT (139.7716293720598 35.68248821967941)
ちよがみ	3.58	東京駅	03-3211-8833	東京都千代田区丸の内1-9-1 東京駅一番街 B1F	35.681786543020856	139.76676064204713	9:30～23:00(L.O.22:30)	無休	25席 （カウンター 9席、テーブル 16席）	https://tabelog.com/tokyo/A1302/A130201/13183570/	https://tblg.k-img.com/resize/640x640c/restaurant/images/Rvw/49496/49496875.jpg?token=823ff92&api=v2	1	0	0	POINT (139.7667606420471 35.68178654302086)
支那麺 はしご 入船店 （しなめんはしご）	3.58	新富町駅	03-3553-2905	東京都中央区入船2-2-13 ライオンズマンション入船　山口ビル	35.671583905267454	139.77591229619568	[月～金]11:00～翌3:00[土・日・祝]11:00～21:00	無休	33席	https://tabelog.com/tokyo/A1302/A130203/13007684/	https://tblg.k-img.com/resize/640x640c/restaurant/images/Rvw/3336/3336304.jpg?token=0721369&api=v2	1	1	0	POINT (139.7759122961957 35.67158390526745)
ど・みそ 八丁堀店	3.57	宝町駅	050-5590-4500	東京都中央区八丁堀3-9-6	35.674991293551656	139.7744789250213	[月～金]11:00～23:00(22:30L.O）[土・日･祝]11:00～21:30(21:00L.O) 各材料がなくなり次第終了	無休	43席 （カウンター席10席　2Fテーブル席20席　平日ランチ営業のみ3Fテーブル席13席）	https://tabelog.com/tokyo/A1302/A130203/13108681/	https://tblg.k-img.com/resize/640x640c/restaurant/images/Rvw/48122/48122625.jpg?token=6d55b4b&api=v2	1	0	0	POINT (139.7744789250213 35.67499129355166)
博多麺房 赤のれん 丸の内店 （はかためんぼうあかのれん）	3.57	二重橋前駅	03-3201-4775	東京都千代田区丸の内2-4-1 丸の内ビルディング 6F	35.68095769879173	139.76424200049277	月～土 11:00～23:00（LO22：30）日 11:00～22:00（LO21：30）	無休	45席	https://tabelog.com/tokyo/A1302/A130201/13010547/	https://tblg.k-img.com/resize/640x640c/restaurant/images/Rvw/67/67820.jpg?token=7d1e4fb&api=v2	1	0	0	POINT (139.7642420004928 35.68095769879173)
汁なし担担麺ピリリ	3.57	水天宮前駅	070-3201-4649	東京都中央区日本橋人形町2-15-17 海老原ビル２F	35.684692396042706	139.78568171464102	11:00-15:00, 18:00-22:00（L.O）日曜・祝日も上記時間帯で営業年末年始は変則となります。別途お知らせ致します。	なし（年末年始はお休みを頂きます。事前にHPなどでお知らせします）	23席 （カウンター３席、テーブル４席×3、ソファーテーブル席８席）	https://tabelog.com/tokyo/A1302/A130204/13197440/	https://tblg.k-img.com/resize/640x640c/restaurant/images/Rvw/116677/116677667.jpg?token=bbf5d4e&api=v2	1	0	0	POINT (139.785681714641 35.68469239604271)
麺画廊 英 （ハナブサ）	3.57	水天宮前駅	03-6661-9932	東京都中央区日本橋人形町2-35-2	35.6851398589569	139.78629858725225	[火～金] 11:30～14:00 （L.O.13:45）18:00～22:00 （L.O.21:45）[土・日・祝]11:30～14:30 （L.O.14:15）※時間内に終了することもございます。	月曜日(祝日も含む)	9席 （カウンター5席・テーブル2席×2）	https://tabelog.com/tokyo/A1302/A130204/13167149/	https://tblg.k-img.com/resize/640x640c/restaurant/images/Rvw/74046/74046097.jpg?token=bf44d04&api=v2	1	0	0	POINT (139.7862985872522 35.6851398589569)
らーめん バリ男 日本橋店 （BARIO）	3.56	日本橋駅	03-6225-2252	東京都中央区日本橋2-9-2	35.68133673452778	139.7749699809726	[月～金]　11:00～23:00[土・日・祝]　11:00～15:00　17:00～21:00		12席 （カウンター12席）	https://tabelog.com/tokyo/A1302/A130202/13132347/	https://tblg.k-img.com/resize/640x640c/restaurant/images/Rvw/114938/114938701.jpg?token=5dcbe9b&api=v2	1	0	0	POINT (139.7749699809726 35.68133673452778)
東京煮干し らーめん玉	3.56	東京駅	03-6551-2205	東京都千代田区丸の内1-9-1 東京駅一番街 B1F 東京ラーメンストリート	35.68022228541462	139.76787839901658	10:30～23:00 LO 22:30	無休（元日を除く）	30席	https://tabelog.com/tokyo/A1302/A130201/13227565/	https://tblg.k-img.com/resize/640x640c/restaurant/images/Rvw/96274/96274490.jpg?token=4da43df&api=v2	1	0	0	POINT (139.7678783990166 35.68022228541462)
室壱羅麺 （むろいちらーめん）	3.55	三越前駅	03-3279-0866	東京都中央区日本橋室町1-12-12 水島ビル 1F	35.68593403082365	139.77555666502465	[月～金]11:00～15:00／18:00～21:30（L.O.）[土・祝]11:00～15:00（L.O.）	日曜日	16席 （カウンター4席、テーブル12席）	https://tabelog.com/tokyo/A1302/A130202/13091594/	https://tblg.k-img.com/resize/640x640c/restaurant/images/Rvw/119058/119058884.jpg?token=05ba03c&api=v2	1	0	0	POINT (139.7755566650247 35.68593403082365)
むぎとオリーブ 日本橋店	3.55	三越前駅	03-6225-2705	東京都中央区日本橋室町2-3-1 コレド室町2 B1F	35.68702556760461	139.774804732772	10:00～21:00	不定休(CREDO室町2に準ずる)	30席	https://tabelog.com/tokyo/A1302/A130202/13205568/	https://tblg.k-img.com/resize/640x640c/restaurant/images/Rvw/81849/81849987.jpg?token=b8c35c1&api=v2	1	0	0	POINT (139.774804732772 35.68702556760461)
中華そば 三浦	3.53	人形町駅	03-6231-0842	東京都中央区日本橋小網町13-8	35.683310235842704	139.78076885295752	月〜金11:30-15:0018:00-22:30(L.O.21:30)*土日祝定休日	土日祝定休日	28席 （カウンター10席、テーブル18席）	https://tabelog.com/tokyo/A1302/A130204/13167259/	https://tblg.k-img.com/resize/640x640c/restaurant/images/Rvw/40052/40052455.jpg?token=2b531bc&api=v2	1	0	0	POINT (139.7807688529575 35.6833102358427)
つじ田 味噌の章 東京駅店	3.53	東京駅	03-6551-2028	東京都千代田区丸の内 1-9-1 東京駅一番街 B1F ラーメンストリート	35.680391434231474	139.7678922789649	10:30～23:00(L.O.22:30)		27席	https://tabelog.com/tokyo/A1302/A130201/13227817/	https://tblg.k-img.com/resize/640x640c/restaurant/images/Rvw/96274/96274301.jpg?token=984f2fd&api=v2	1	0	0	POINT (139.7678922789649 35.68039143423147)
銀座 篝 大手町店	3.53	大手町駅	03-3278-7330	東京都千代田区大手町1-9-2 大手町フィナンシャルシティグランキューブ B1F	35.68852800761415	139.76466772769638	11:00〜22:00		22席	https://tabelog.com/tokyo/A1302/A130201/13195336/	https://tblg.k-img.com/resize/640x640c/restaurant/images/Rvw/118316/118316767.jpg?token=ed58937&api=v2	1	1	0	POINT (139.7646677276964 35.68852800761415)
あづま軒	3.53	人形町駅	03-3666-1984	東京都中央区日本橋人形町2-3-8	35.68503260729752	139.78395656447282	[月～金]11:30～15:0018:00～22:00(L.O.21:30フード、ドリンク共に)[土] 第2、第4、第5土曜日の昼は一階のみの営業)11:30〜15:0018:00〜21:00(第3土曜日の夜は完全定休、所により不定休)	日曜・祝日	24席	https://tabelog.com/tokyo/A1302/A130204/13043682/	https://tblg.k-img.com/resize/640x640c/restaurant/images/Rvw/119496/119496497.jpg?token=6542f9f&api=v2	1	0	0	POINT (139.7839565644728 35.68503260729752)
えびそば 一幻 八重洲地下街店 （イチゲン）	3.52	東京駅	03-3548-8833	東京都中央区八重洲2-1 八重洲地下街 外堀地下2番通り	35.678613016888974	139.76809539953285	11:00～22:00(L.O)	年中無休	16席 （カウンター8席、テーブル4席×2）	https://tabelog.com/tokyo/A1302/A130201/13208370/	https://tblg.k-img.com/resize/640x640c/restaurant/images/Rvw/118404/118404388.jpg?token=6a4c496&api=v2	1	0	0	POINT (139.7680953995329 35.67861301688897)
寿限無 担々麺	3.52	人形町駅	03-6661-2176	東京都中央区日本橋堀留町1-8-15	35.68715788351616	139.78097865838052	[月～金]11:00～16:0017:30～23:00[土・祝]11:00～16:0017:30～21:00	日曜日	16席 （カウンター6席、2人テーブル×5卓）	https://tabelog.com/tokyo/A1302/A130204/13214367/	https://tblg.k-img.com/resize/640x640c/restaurant/images/Rvw/118470/118470185.jpg?token=cd50aa5&api=v2	1	0	0	POINT (139.7809786583805 35.68715788351616)
九州じゃんがら 日本橋店	3.51	日本橋駅	03-3281-0701	東京都中央区日本橋1-7-7	35.683250155027025	139.77577427052333	[月～木] 10:45～23:30 [金] 10:45～23:45 [土・日・祝] 10:45～23:00	無休	19席	https://tabelog.com/tokyo/A1302/A130202/13000538/	https://tblg.k-img.com/resize/640x640c/restaurant/images/Rvw/102904/102904678.jpg?token=640a9e4&api=v2	1	0	0	POINT (139.7757742705233 35.68325015502703)
中華そば 福味 ＫＩＴＴＥ店	3.51	東京駅	03-6812-2922	東京都千代田区丸の内2-7-2 KITTE	35.679840055399865	139.7650917036055	平日11:00~22:00土・日・祝11:00~21:00	元日・法令点検日		https://tabelog.com/tokyo/A1302/A130201/13231657/	https://tblg.k-img.com/resize/640x640c/restaurant/images/Rvw/117147/117147662.jpg?token=48e37fe&api=v2	1	0	0	POINT (139.7650917036055 35.67984005539986)
東京スタイル鶏らーめん ど・みそ鶏	3.50	宝町駅	050-5594-8898	東京都中央区京橋1‐17‐12 吉住ビル 1F	35.67776820439068	139.77365664323548	[月～金]11:00～23:00(22:30L.O）[土]ランチ 11:00～14:00(L.O)各材料がなくなり次第終了	日曜・祝日	30席 （貸切要相談！！）	https://tabelog.com/tokyo/A1302/A130202/13216576/	https://tblg.k-img.com/resize/640x640c/restaurant/images/Rvw/79943/79943848.jpg?token=88e15e9&api=v2	1	0	0	POINT (139.7736566432355 35.67776820439068)
中国屋台十八番 新川店	3.49	八丁堀駅	03-3553-1081	東京都中央区新川2-7-7 クレール八重洲通りビル　1F	35.67577465158804	139.7806900397883	[月～金]11:30〜14:3018:00～22:30(フードLO)21:50[土]11:30～14:00(材料切れによる早仕舞い有り)	日曜・祝日・第2・第4土曜日	50席	https://tabelog.com/tokyo/A1302/A130203/13039208/	https://tblg.k-img.com/resize/640x640c/restaurant/images/Rvw/118041/118041194.jpg?token=65870db&api=v2	1	1	0	POINT (139.7806900397883 35.67577465158804)
はやし	3.79	渋谷駅	03-3770-9029	東京都渋谷区道玄坂1-14-9 ソシアル道玄坂　１Ｆ	35.65732296056167	139.69811246961893	11:30～15:30※スープが無くなり次第終了	日曜・祝日 2018/9/6臨時休業	10席 （カウンターのみ）	https://tabelog.com/tokyo/A1303/A130301/13003367/	https://tblg.k-img.com/resize/640x640c/restaurant/images/Rvw/119479/119479524.jpg?token=85f78fe&api=v2	1	1	1	POINT (139.6981124696189 35.65732296056167)
喜楽 （きらく）	3.78	神泉駅	03-3461-2032	東京都渋谷区道玄坂2-17-6	35.65902109041858	139.6968619397345	11:30～20:30	水曜	27席 （1階：カウンター7席　　2階：テーブル20席）	https://tabelog.com/tokyo/A1303/A130301/13001705/	https://tblg.k-img.com/resize/640x640c/restaurant/images/Rvw/115121/115121687.jpg?token=4e76424&api=v2	1	0	0	POINT (139.6968619397345 35.65902109041858)
おおぜき中華そば店	3.76	恵比寿駅	03-3780-3116	東京都渋谷区恵比寿西1-9-4 小熊ビル 1Ｆ	35.646990904287186	139.70795573895398	【平日・土】11:00～15:00 17:00〜22:00【日・祝】11:00〜14:00	無休（※お盆正月を除く）	10席 （カウンターのみ）	https://tabelog.com/tokyo/A1303/A130302/13147623/	https://tblg.k-img.com/resize/640x640c/restaurant/images/Rvw/86564/86564276.jpg?token=dd0c026&api=v2	1	1	1	POINT (139.707955738954 35.64699090428719)
うさぎ	3.72	神泉駅	03-3464-4111	東京都渋谷区神泉町8-13 アーガス霜田ビル 1F	35.65570249867415	139.6935520896335	［月～金］11:30～14:30（L.O.）／18:00～22:00（L.O.）［土］11:30～14:30（L.O.）	日曜日、祝日（2019年GWは日曜日以外は営業）	11席 （カウンター１１席）	https://tabelog.com/tokyo/A1303/A130301/13041115/	https://tblg.k-img.com/resize/640x640c/restaurant/images/Rvw/24664/24664002.jpg?token=aea110c&api=v2	1	1	0	POINT (139.6935520896335 35.65570249867415)
らーめん 穀雨 （コクウ、KOKŪ）	3.71	渋谷駅	03-3770-7709	東京都渋谷区桜丘町29-5 石島ビル 1F	35.65507766720205	139.6993741348816	【平日】12:00～15:00（L.O.）18:00〜20:00（L.O.）【土】※第１第３土曜は休み12:00～15:00（L.O.）	日曜・祝日・第１第３土曜	9席 （カウンターのみ）	https://tabelog.com/tokyo/A1303/A130301/13149719/	https://tblg.k-img.com/resize/640x640c/restaurant/images/Rvw/66704/66704030.jpg?token=5b94c10&api=v2	1	0	0	POINT (139.6993741348816 35.65507766720205)
つなぎ	3.68	恵比寿駅	050-5872-6450	東京都渋谷区恵比寿1-4-1 アーバンハウス 1F	35.647727277575925	139.7115717936262	11:30～23:00【年末年始の営業時間】12/30　15時まで営業12/31～1/5　休業1/6～通常営業	不定休	12席	https://tabelog.com/tokyo/A1303/A130302/13157556/	https://tblg.k-img.com/resize/640x640c/restaurant/images/Rvw/24114/24114805.jpg?token=122c7e1&api=v2	1	1	0	POINT (139.7115717936262 35.64772727757592)
鬼そば　藤谷	3.67	渋谷駅	03-5428-0821	東京都渋谷区宇田川町24-6 渋ビルヂング 5F	35.6602793329787	139.69937000684186	11:30～14:50、17:00～21:30スープ切れ終了あり日曜日11:30～14:50 17:00～20:50	木曜日	14席 （カウンター6席、テーブル2人席×4）	https://tabelog.com/tokyo/A1303/A130301/13147342/	https://tblg.k-img.com/resize/640x640c/restaurant/images/Rvw/43984/43984868.jpg?token=323fd74&api=v2	1	0	0	POINT (139.6993700068419 35.6602793329787)
蔭山樓　 恵比寿店 （カゲヤマロウ）	3.66	恵比寿駅	050-5570-2063	東京都渋谷区恵比寿3-2-2	35.6453295811904	139.71745197122772	[月～金〕ランチ ：11:30～15:00（L.O.14:30）ディナー：18:00～22:00（L.O.21:30）[土日祭]ランチ ：11:30～15:00（L.O.14:30）ディナー：17:00～22:00（L.O.21:30）	年末年始	26席 （テーブル20席、カウンター6席）	https://tabelog.com/tokyo/A1303/A130302/13136424/	https://tblg.k-img.com/resize/640x640c/restaurant/images/Rvw/31681/31681267.jpg?token=a4748cf&api=v2	1	1	0	POINT (139.7174519712277 35.6453295811904)
中華ソバ 櫻坂 （桜坂 さくらざか）	3.64	渋谷駅	03-3770-1102	東京都渋谷区桜丘町17-10 吉野ビル 1F	35.656238898111994	139.7010754380719	【平日・土】11:00～23:00	日曜	14席 （カウンター席のみ）	https://tabelog.com/tokyo/A1303/A130301/13008320/	https://tblg.k-img.com/resize/640x640c/restaurant/images/Rvw/72119/72119432.jpg?token=fb1d27e&api=v2	1	0	0	POINT (139.7010754380719 35.65623889811199)
炙り味噌らーめん 麺匠 真武咲弥 渋谷店 （SHINBUSAKIYA）	3.63	神泉駅	03-6416-3778	東京都渋谷区道玄坂2-10-3	35.65783621403991	139.69668367575986	［日～木]11:00～翌4:00（Lo.3:45）[金・土・祝前日]11:00～翌6:00（Lo.5:45）	なし	28席 （１Ｆ：カウンター10席／テーブル6席、２Ｆ：カウンター4席／テーブル8席）	https://tabelog.com/tokyo/A1303/A130301/13109578/	https://tblg.k-img.com/resize/640x640c/restaurant/images/Rvw/99799/99799654.jpg?token=3401497&api=v2	1	0	0	POINT (139.6966836757599 35.65783621403991)
麺の坊 砦 （めんのぼうとりで）	3.63	神泉駅	03-3780-4450	東京都渋谷区神泉町20-23	35.65716591616554	139.69142858749728	11:00～翌3:00（L.O.翌2:40）	水曜日	26席 （カウンター11席、大テーブル10席、小テーブル5席）	https://tabelog.com/tokyo/A1303/A130301/13003402/	https://tblg.k-img.com/resize/640x640c/restaurant/images/Rvw/21935/21935965.jpg?token=0973394&api=v2	1	0	0	POINT (139.6914285874973 35.65716591616554)
麺屋ぬかじ	3.63	渋谷駅	03-3476-8148	東京都渋谷区宇田川町3-12 monostep2 1F	35.662701837877776	139.69858190520102	[月～金]11:00～16:00 、18:00～20:00[土・祝]11:00～16:00	日曜		https://tabelog.com/tokyo/A1303/A130301/13113668/	https://tblg.k-img.com/resize/640x640c/restaurant/images/Rvw/93477/93477406.jpg?token=64824d4&api=v2	1	0	0	POINT (139.698581905201 35.66270183787778)
しお貫 （しおかん）	3.62	恵比寿駅	050-5597-5871	東京都渋谷区恵比寿3-3-2	35.645117668974976	139.71799943551736	[火～土]10:30～翌4:00[日･月]10:30～22:00	無休	22席 （店内にカウンター14席、外にテーブル8席）	https://tabelog.com/tokyo/A1303/A130302/13092063/	https://tblg.k-img.com/resize/640x640c/restaurant/images/Rvw/111078/111078200.jpg?token=3ed2271&api=v2	1	0	0	POINT (139.7179994355174 35.64511766897498)
ちばから 渋谷道玄坂店	3.62	神泉駅	03-6809-0568	東京都渋谷区道玄坂2-22-2 SHIBUYA道玄坂ビル1956　1F	35.659644889966664	139.69556701855672	11:30〜15:0017:00〜22:00（L.O.21:30）	無	17席 （カウンター7席、テーブル10席）	https://tabelog.com/tokyo/A1303/A130301/13198896/	https://tblg.k-img.com/resize/640x640c/restaurant/images/Rvw/118556/118556273.jpg?token=64af608&api=v2	1	0	0	POINT (139.6955670185567 35.65964488996666)
らーめん 526 （こじろう）	3.62	代官山駅	非公開	東京都渋谷区猿楽町1-3 竜王ビルIII １Ｆ	35.653524323773745	139.70518705697134	【月～金】11:30～15:00・17:30～21:00（麺切れ終了）【土】11:00～15:00・17：30～20：00(麺切れ終了）【祭日】11：30～15：00(麺切れ終了）	日曜日	8席 （カウンター8席）	https://tabelog.com/tokyo/A1303/A130301/13127293/	https://tblg.k-img.com/resize/640x640c/restaurant/images/Rvw/17970/17970252.jpg?token=4ed6d1d&api=v2	1	1	0	POINT (139.7051870569713 35.65352432377374)
九月堂	3.61	渋谷駅	03-6327-4056	東京都渋谷区神南1-15-12 佐藤ビル2F	35.66387505972343	139.69938345128244	[平日]11:00〜22:00[土]11:00〜22:00[日・祝]11:00〜21:00※スープがなくなり次第終了	月曜日（祝日の場合は火曜日がお休みになります。）	19席 （カウンター7席、テーブル3卓×各2席、テーブル1卓×4席、ソファー席）	https://tabelog.com/tokyo/A1303/A130301/13096372/	https://tblg.k-img.com/resize/640x640c/restaurant/images/Rvw/10580/10580990.jpg?token=1816f3f&api=v2	1	0	0	POINT (139.6993834512824 35.66387505972343)
中華そば すずらん	3.61	恵比寿駅	03-5422-6705	東京都渋谷区恵比寿1-7-12 久保ビル 1F	35.64823331484351	139.71044297518645	11:30～15:30 18:00～23:00(L.O.22:30)	不定休	11席 （カウンター11席）	https://tabelog.com/tokyo/A1303/A130302/13173000/	https://tblg.k-img.com/resize/640x640c/restaurant/images/Rvw/106071/106071779.jpg?token=6283f7f&api=v2	1	0	0	POINT (139.7104429751865 35.64823331484351)
横浜家系 侍 渋谷店	3.60	渋谷駅	03-3498-5533	東京都渋谷区渋谷3-15-2	35.65589546445638	139.7054969220652	[月木金] 11:00～15:00/18:00〜22:00 [火水］11:00〜16:00[土・日・祝] 11:00～18:00	不定休	9席 （カウンター席のみ９席）	https://tabelog.com/tokyo/A1303/A130301/13099685/	https://tblg.k-img.com/resize/640x640c/restaurant/images/Rvw/85557/85557074.jpg?token=672ce4f&api=v2	1	0	0	POINT (139.7054969220652 35.65589546445638)
らぁめん冠尾	3.60	恵比寿駅	03-6416-5169	東京都渋谷区恵比寿西1-7-11 1F	35.647861653784474	139.70848815464606	〔月～土〕11:30～翌4:00（L.O）〔日･祝〕11:30～翌1:00（L.O）	無休	20席 （カウンター16席　4人卓×1）	https://tabelog.com/tokyo/A1303/A130302/13202652/	https://tblg.k-img.com/resize/640x640c/restaurant/images/Rvw/68165/68165736.jpg?token=a4dd75f&api=v2	1	0	0	POINT (139.7084881546461 35.64786165378447)
真鯛らぁめん まちかど	3.60	恵比寿駅	090-4453-0253	東京都渋谷区恵比寿西1-3-9 田中ビル 2F	35.64876794253335	139.70830479481359	月～土　11:30～17:00(LO16:30)	日曜日	16席 （団体様がゆっくりできる最大8名様まで座れるスペースあり）	https://tabelog.com/tokyo/A1303/A130302/13228610/	https://tblg.k-img.com/resize/640x640c/restaurant/images/Rvw/105073/105073083.jpg?token=f58e641&api=v2	1	0	0	POINT (139.7083047948136 35.64876794253335)
なかじま	3.59	渋谷駅	03-5774-1601	東京都渋谷区渋谷3-18-7 ナルセビル 1F	35.6570986405202	139.7038608914302	［平日］ 11:00 - 26:00 ［土日］ 11:00 - 23:00 （L.O.22：30）	無休	20席 （カウンター10席、テーブル4人席×1、2人席×1、半テラス4席×1）	https://tabelog.com/tokyo/A1303/A130301/13025864/	https://tblg.k-img.com/resize/640x640c/restaurant/images/Rvw/112532/112532046.jpg?token=fa77e45&api=v2	1	0	0	POINT (139.7038608914302 35.6570986405202)
道玄坂 マンモス	3.59	神泉駅	03-5459-3956	東京都渋谷区道玄坂2-10-1	35.657697337240045	139.69652536196864	［月～金］11:30～16:00／17:30～23:00［土・日・祝］11:30～22:00	無休（但し年末年始•お盆はお休み）	11席 （カウンターのみ）	https://tabelog.com/tokyo/A1303/A130301/13122700/	https://tblg.k-img.com/resize/640x640c/restaurant/images/Rvw/89735/89735053.jpg?token=5487f96&api=v2	1	0	0	POINT (139.6965253619686 35.65769733724004)
ラーメン凪 豚王 渋谷本店 （ブタオウ【旧店名】ラーメン専門店 凪）	3.59	渋谷駅	03-3499-0390	東京都渋谷区東1-3-1 カミニート　１Ｆ	35.6575245043809	139.7082163434358	月〜土　11:00-23:00(ラストオーダー 22:30)日・祝 11:00～22:00(ラストオーダー 21:30)	なし	28席	https://tabelog.com/tokyo/A1303/A130301/13024273/	https://tblg.k-img.com/resize/640x640c/restaurant/images/Rvw/72342/72342831.jpg?token=2831a39&api=v2	1	1	0	POINT (139.7082163434358 35.6575245043809)
AFURI 恵比寿 （阿夫利 あふり）	3.58	恵比寿駅	03-5795-0750	東京都渋谷区恵比寿1-1-7 １１７ビル　１Ｆ	35.648325536157714	139.7109557061363	11:00 - 翌5:00（L.O 4:30）	年中無休	20席 （カウンター席20席）	https://tabelog.com/tokyo/A1303/A130302/13005500/	https://tblg.k-img.com/resize/640x640c/restaurant/images/Rvw/35121/35121026.jpg?token=c2c567e&api=v2	1	0	0	POINT (139.7109557061363 35.64832553615771)
すごい煮干ラーメン凪 渋谷東口店 （【旧店名】ラーメン凪　煮干王　渋谷店）	3.57	渋谷駅	03-6427-4558	東京都渋谷区渋谷3-7-2 第3矢木ビル 1F	35.657869126845284	139.70461551550602	[月～木]10:30～翌1:00[金・土]10:30~翌3:00[日・祝]10:30～22:00ラストオーダーは閉店時間の30分前になります。	年中無休(社員研修等で臨休の場合あり)	19席 （カウンター17席　　テーブル2席 ）	https://tabelog.com/tokyo/A1303/A130301/13137167/	https://tblg.k-img.com/resize/640x640c/restaurant/images/Rvw/32030/32030202.jpg?token=41c1fb7&api=v2	1	0	0	POINT (139.704615515506 35.65786912684528)
香湯ラーメン ちょろり 恵比寿店 （しゃんたんらーめんちょろり）	3.57	恵比寿駅	03-3444-7387	東京都渋谷区恵比寿4-22-11	35.644548792684546	139.71523719111056	11:00～翌3:20('16,03,06確認)	日曜・祝日	37席	https://tabelog.com/tokyo/A1303/A130302/13001595/	https://tblg.k-img.com/resize/640x640c/restaurant/images/Rvw/94504/94504629.jpg?token=933f681&api=v2	1	0	0	POINT (139.7152371911106 35.64454879268455)
アートマサシヤ	3.56	神泉駅	080-4437-5511	東京都渋谷区南平台町2-8 日興パレス南平台アヅマ 1F	35.65543284948265	139.69608189194886	11:30～15:00※売り切れ次第閉店	水曜（年末年始：毎年12/30-1/4くらい）	18席 （カウンター10席、４人掛けテーブル２卓）	https://tabelog.com/tokyo/A1303/A130301/13122253/	https://tblg.k-img.com/resize/640x640c/restaurant/images/Rvw/81490/81490452.jpg?token=69beed5&api=v2	1	0	0	POINT (139.6960818919489 35.65543284948265)
らあめん渋英 （しぶひで）	3.55	渋谷駅	03-3770-7671	東京都渋谷区道玄坂2-4-5	35.65897003038875	139.69947366962631	[月～木・日・祝]11:00～翌3:00[金・土・祝前]11:00～翌6:00	無休	23席 （カウンター*8、テーブル*15）	https://tabelog.com/tokyo/A1303/A130301/13073252/	https://tblg.k-img.com/resize/640x640c/restaurant/images/Rvw/21349/21349186.jpg?token=8ce8a1f&api=v2	1	0	0	POINT (139.6994736696263 35.65897003038875)
まぜそば 三ツ星	3.55	恵比寿駅	03-6455-0552	東京都渋谷区恵比寿西1-13-2 サンキビル 1F	35.64751807254369	139.7080943142847	[月～木]11:30～15:00 18:30～翌01:00[金・土]11:30～15:00 18:30～翌02:00[日・祝]11:30～15:00 18:30～22:00	不定休	7席 （カウンター席のみ）	https://tabelog.com/tokyo/A1303/A130302/13177212/	https://tblg.k-img.com/resize/640x640c/restaurant/images/Rvw/40368/40368201.jpg?token=f30a33e&api=v2	1	0	0	POINT (139.7080943142847 35.64751807254369)
瞠 恵比寿店 （miharu）	3.54	恵比寿駅	03-3444-2274	東京都渋谷区恵比寿1-4-1 アーバンハウス １Ｆ	35.6476236734565	139.71133765117492	【月～日】11:00～15:30 17:00～22:00	令和元年 11月17日より日曜営業再開します。	11席 （カウンター席のみ）	https://tabelog.com/tokyo/A1303/A130302/13032533/	https://tblg.k-img.com/resize/640x640c/restaurant/images/Rvw/65229/65229087.jpg?token=4bab311&api=v2	1	0	0	POINT (139.7113376511749 35.6476236734565)
新潟三宝亭 東京ラボ 渋谷宮益坂店	3.54	渋谷駅	03-6419-3336	東京都渋谷区渋谷2-19-17 第106東京ビル B1F	35.65969086841873	139.70415658085528	[月～金] 11:30～15:30(L.O.15:00)17:30～23:30(L.O.23:00) [土・日・祝] 11:30～23:30(L.O.23:00)	無休(年末年始のみ休み)	23席	https://tabelog.com/tokyo/A1303/A130301/13224183/	https://tblg.k-img.com/resize/640x640c/restaurant/images/Rvw/117981/117981055.jpg?token=7b8f86c&api=v2	1	0	0	POINT (139.7041565808553 35.65969086841873)
九十九ラーメン 恵比寿本店	3.53	恵比寿駅	03-5466-9488	東京都渋谷区広尾1-1-36 本国ビル　１Ｆ	35.64984067168847	139.7120899866189	11:00～翌5:00	年末年始	32席 （状況により座席追加も致します）	https://tabelog.com/tokyo/A1303/A130302/13004701/	https://tblg.k-img.com/resize/640x640c/restaurant/images/Rvw/9010/9010382.jpg?token=1d51e89&api=v2	1	0	0	POINT (139.7120899866189 35.64984067168847)
しゅういち 恵比寿店	3.53	恵比寿駅	03-5428-6867	東京都渋谷区恵比寿西1-9-2 YAMAビル B1F	35.64719727672521	139.70827764716228	[月～土]11:00～翌5:00[日・祝]11:00～23:00	無休	20席 （カウンター6席、テーブル14席）	https://tabelog.com/tokyo/A1303/A130302/13159037/	https://tblg.k-img.com/resize/640x640c/restaurant/images/Rvw/63230/63230673.jpg?token=34e976e&api=v2	1	0	0	POINT (139.7082776471623 35.64719727672521)
らーめん 惠本将裕 神泉店	3.53	神泉駅	非公開	東京都渋谷区円山町28-8 第18宮庭マンション1Ｆ	35.655393376118845	139.69418455134016	11:30～15:00／18:00～23:00（スープ切れまで）	日曜日	8席 （カウンターのみ）	https://tabelog.com/tokyo/A1303/A130301/13195728/	https://tblg.k-img.com/resize/640x640c/restaurant/images/Rvw/107912/107912591.jpg?token=12f9ba8&api=v2	1	0	0	POINT (139.6941845513402 35.65539337611884)
Renge no Gotoku （レンゲノゴトク）	3.52	渋谷駅	050-5597-6543	東京都渋谷区桜丘町16-7 鈴木ビル 1F	35.65639783352314	139.7010772659872	ランチ：11:00~16:00ディナー：17:30~22:00	日曜日	16席	https://tabelog.com/tokyo/A1303/A130301/13236477/	https://tblg.k-img.com/resize/640x640c/restaurant/images/Rvw/113386/113386468.jpg?token=69451e5&api=v2	1	0	0	POINT (139.7010772659872 35.65639783352314)
風来居 渋谷店 （ふうらいきょ）	3.51	神泉駅	03-3463-1008	東京都渋谷区松濤1-29-2 松濤スクエアビル　１Ｆ	35.660044840166655	139.6951650890803	11:00～23:00	年中無休	18席 （カウンター　１２席、テーブル席　６席）	https://tabelog.com/tokyo/A1303/A130301/13020303/	https://tblg.k-img.com/resize/640x640c/restaurant/images/Rvw/36122/36122140.jpg?token=2334640&api=v2	1	0	0	POINT (139.6951650890803 35.66004484016666)
イップウドウ シロマル ベース 渋谷店 （IPPUDO SHIROMARU BASE）	3.51	渋谷駅	03-6416-3106	東京都渋谷区宇田川町25-3 プリンスビル 1F	35.66034876752681	139.69922862649753	[月～木・日] 11:00～翌5:00 [金・土] 11:00～翌6:00	無休	20席 （カウンター２０席）	https://tabelog.com/tokyo/A1303/A130301/13176753/	https://tblg.k-img.com/resize/640x640c/restaurant/images/Rvw/32370/32370969.jpg?token=999fe33&api=v2	1	0	0	POINT (139.6992286264975 35.66034876752681)
博多食堂	3.51	神泉駅	03-3496-3980	東京都渋谷区宇田川町36-16 プラザマリーナ 1F	35.661629555811025	139.69643272226622	11:00～24:00（スープがなくなり次第終了）	無休	13席 （カウンター９席、テーブル４席(２人用×２卓)）	https://tabelog.com/tokyo/A1303/A130301/13161572/	https://tblg.k-img.com/resize/640x640c/restaurant/images/Rvw/117836/117836668.jpg?token=b5eff39&api=v2	1	0	0	POINT (139.6964327222662 35.66162955581103)
鉄板焼き 貴真 （TEPPANYAKI KISHIN）	3.51	代官山駅	03-6427-0952	東京都渋谷区猿楽町17-10 代官山アートビレッジ 1F	35.649332720962384	139.69907831284627	ランチ　【月～金】12:00～15:00(L.O14:30)　　　　【土・日・祝】11:00～17:00ディナー　17:00～23:00（L.O 22:30）	不定休(12/31,1/1定休日)	57席 （カウンター9席、テーブル14席ございます。個室は4名席と10名席ございます。テラス20席ございます。）	https://tabelog.com/tokyo/A1303/A130303/13197854/	https://tblg.k-img.com/resize/640x640c/restaurant/images/Rvw/63267/63267668.jpg?token=9ec2294&api=v2	1	1	0	POINT (139.6990783128463 35.64933272096238)
鶏そば・ラーメン Tonari	3.51	神泉駅	050-5592-1575	東京都渋谷区円山町14-3 日興パレスビル渋谷 1F	35.658184188754575	139.6941863671397	Open12：00Close22：30(スープ無くなり次第終了)	日曜日・祝日	9席 （ハイチェアーのカウンターのみ）	https://tabelog.com/tokyo/A1303/A130301/13196746/	https://tblg.k-img.com/resize/640x640c/restaurant/images/Rvw/92208/92208161.jpg?token=f4bb32d&api=v2	1	0	0	POINT (139.6941863671397 35.65818418875457)
SOBA HOUSE 金色不如帰 （コンジキホトトギス）	3.86	新宿御苑前駅	非公開	東京都新宿区新宿2-4-1 第22宮廷マンション 1F	35.688812825184854	139.70825962149246	[月～金] 11:00～15:0018:30～21:30	土曜日・日曜日・祝日	11席 （カウンター7席／2人がけテーブル2卓）	https://tabelog.com/tokyo/A1304/A130402/13222172/	https://tblg.k-img.com/resize/640x640c/restaurant/images/Rvw/90109/90109750.jpg?token=a878fb5&api=v2	1	1	1	POINT (139.7082596214925 35.68881282518485)
らぁ麺 はやし田 新宿本店	3.85	新宿三丁目駅	03-6380-0047	東京都新宿区新宿3-31-5 新宿ペガサス館 1F	35.69084419484646	139.70369518481826	11:00～16:0018:00～22:00(スープ切れ早仕舞いあり)	無休	16席 （カウンター席のみ）	https://tabelog.com/tokyo/A1304/A130401/13216496/	https://tblg.k-img.com/resize/640x640c/restaurant/images/Rvw/115309/115309708.jpg?token=a9aacba&api=v2	1	1	0	POINT (139.7036951848183 35.69084419484646)
風雲児 （ふううんじ）	3.78	南新宿駅	03-6413-8480	東京都渋谷区代々木2-14-3 北斗第一ビルB1F	35.68684449935543	139.69663623299473	11:00～15:0017:00～21:00※売り切れ次第終了	日・祝（※GW、お盆休み、年末年始の休業あり）	15席 （カウンター15席）	https://tabelog.com/tokyo/A1304/A130401/13044091/	https://tblg.k-img.com/resize/640x640c/restaurant/images/Rvw/69003/69003468.jpg?token=2314947&api=v2	1	1	0	POINT (139.6966362329947 35.68684449935543)
麺屋 翔 本店	3.78	西武新宿駅	03-3364-5787	東京都新宿区西新宿7-22-34	35.69662400822571	139.69659828587965	[月～金]11:00〜15:0018:00〜22:00[土日祝]11:00〜15:0017:00～21:00【土・日】11:00〜15:0017:00～21:00※スープ切れ次第閉店	無休　※年末年始休業　臨時休業まれにあり	18席 （カウンター席のみ）	https://tabelog.com/tokyo/A1304/A130401/13040181/	https://tblg.k-img.com/resize/640x640c/restaurant/images/Rvw/35788/35788156.jpg?token=53bd3d6&api=v2	1	1	0	POINT (139.6965982858796 35.69662400822571)
麺屋海神 （めんやかいじん）	3.76	新宿駅	03-3356-5658	東京都新宿区新宿3-35-7 さんらくビル　２Ｆ	35.68973317730406	139.70224868943583	[月～金]11:00～15:0016:30～23:30[土・祝]11:00～23:30[日・連休最終日]11:00～23:00	不定休	16席 （カウンター6席、テーブル３卓１０席）	https://tabelog.com/tokyo/A1304/A130401/13045287/	https://tblg.k-img.com/resize/640x640c/restaurant/images/Rvw/49794/49794866.jpg?token=c146219&api=v2	1	0	0	POINT (139.7022486894358 35.68973317730406)
焼きあご塩らー麺 たかはし 新宿本店	3.75	西武新宿駅	050-5571-5573	東京都新宿区歌舞伎町1-27-3 KKビル 1F	35.69515367716307	139.7004469228363	11：00～翌5：00（L.O5：00）無休（年末年始を除く）	無休（年末年始を除く）	13席 （カウンター席のみ）	https://tabelog.com/tokyo/A1304/A130401/13178753/	https://tblg.k-img.com/resize/640x640c/restaurant/images/Rvw/72930/72930869.jpg?token=ecdf538&api=v2	1	1	0	POINT (139.7004469228363 35.69515367716307)
麺屋 優創	3.74	大久保駅	03-5937-4898	東京都新宿区百人町2-19-11 サニーコープ エトナ1F	35.70429571168425	139.69797392952455	11:30～20:00（L.O.）	水曜	21席 （カウンター9席、掘り炬燵式テーブル席×2（12席見当））	https://tabelog.com/tokyo/A1304/A130404/13103572/	https://tblg.k-img.com/resize/640x640c/restaurant/images/Rvw/24646/24646733.jpg?token=e66398b&api=v2	1	1	0	POINT (139.6979739295246 35.70429571168425)
らあめん 満来 （まんらい）	3.73	新宿西口駅	03-3340-2727	東京都新宿区西新宿1-4-10	35.69299025298003	139.69790084500693	11:00～23:00	無(年末年始のみ有)	15席 （カウンター席のみ）	https://tabelog.com/tokyo/A1304/A130401/13000808/	https://tblg.k-img.com/resize/640x640c/restaurant/images/Rvw/79636/79636619.jpg?token=f3bd087&api=v2	1	1	0	POINT (139.6979008450069 35.69299025298003)
麺恋処 いそじ （めんこいどころ いそじ）	3.72	南新宿駅	03-3378-6555	東京都渋谷区代々木1-14-5	35.68127849318452	139.70036617949194	【月〜金】11:30～20:30（L.O.）【土曜日】11:30〜19:00（L.O.）※麺またはスープがなくなり次第終了	日・祝	10席 （カウンター席のみ）	https://tabelog.com/tokyo/A1304/A130403/13041621/	https://tblg.k-img.com/resize/640x640c/restaurant/images/Rvw/53459/53459501.jpg?token=d8ec7ce&api=v2	1	1	0	POINT (139.7003661794919 35.68127849318452)
製麺ｒａｂｏ （ラボ）	3.72	西新宿五丁目駅	03-6383-3657	東京都渋谷区本町4-13-10	35.68798103989329	139.68047224530585	【平日】11:30～14:3018:00～21:30【土日・祝】11:30～14:30※臨時休業あり		9席 （カウンターのみ）	https://tabelog.com/tokyo/A1304/A130401/13172669/	https://tblg.k-img.com/resize/640x640c/restaurant/images/Rvw/114037/114037397.jpg?token=70c2e2f&api=v2	1	1	1	POINT (139.6804722453059 35.68798103989329)
すごい煮干ラーメン凪 新宿ゴールデン街店本館 （【旧店名】ラーメン凪 煮干王）	3.70	新宿三丁目駅	03-3205-1925	東京都新宿区歌舞伎町1-1-10 ゴールデン街(新宿ゴールデン街Ｇ２通り) 2F	35.693733345798066	139.70458442238984	24時間営業	年中無休(社員研修等で臨休の場合あり)	10席 （（Ｌ字型カウンター10席））	https://tabelog.com/tokyo/A1304/A130401/13054766/	https://tblg.k-img.com/resize/640x640c/restaurant/images/Rvw/34056/34056507.jpg?token=76ef1f9&api=v2	1	0	0	POINT (139.7045844223898 35.69373334579807)
煮干中華そば鈴蘭 新宿店 （すずらん）	3.70	新宿三丁目駅	03-3358-2958	東京都新宿区新宿3-11-12 永谷テイクエイト 1F	35.69168887998113	139.70674433714004	11:30～23:30(日曜日のみ11:30～23:00)	無休	18席 （カウンター13席 テーブル1卓）	https://tabelog.com/tokyo/A1304/A130401/13141542/	https://tblg.k-img.com/resize/640x640c/restaurant/images/Rvw/92708/92708948.jpg?token=ac7fd7e&api=v2	1	1	0	POINT (139.70674433714 35.69168887998113)
二丁目つけめん ガチ （二丁目つけめん GACHI）	3.68	新宿御苑前駅	03-5368-2637	東京都新宿区新宿2-17-10 黒岩ビル 1F	35.69126062416006	139.70855948388777	11:00～23:00(L.O.22:50)※祝日も営業。	火曜日	18席 （6人用テーブル1卓、カウンター7席、2名用テーブル1卓、4名用テーブル1卓）	https://tabelog.com/tokyo/A1304/A130402/13131683/	https://tblg.k-img.com/resize/640x640c/restaurant/images/Rvw/39514/39514865.jpg?token=73a2091&api=v2	1	0	0	POINT (139.7085594838878 35.69126062416006)
メンショー サン フランシスコ （MENSHO SAN FRANCISCO）	3.68	新宿駅	03-3349-5874	東京都新宿区西新宿1-1-3 新宿ミロード 7F	35.689425388855916	139.69975307753427	11:00～23:00	無休		https://tabelog.com/tokyo/A1304/A130401/13223993/	https://tblg.k-img.com/resize/640x640c/restaurant/images/Rvw/90533/90533247.jpg?token=db0114c&api=v2	1	0	0	POINT (139.6997530775343 35.68942538885592)
しろ八 （しろはち）	3.68	新宿御苑前駅	03-3341-0207	東京都新宿区新宿1-12-1 サンサーラ第三御苑101	35.688636810832264	139.7127212035073	【平日】11:30～21:00【土】11:30～17:00	日曜・祝日	10席 （カウンターのみ）	https://tabelog.com/tokyo/A1304/A130402/13026455/	https://tblg.k-img.com/resize/640x640c/restaurant/images/Rvw/20440/20440786.jpg?token=9a8b16c&api=v2	1	1	0	POINT (139.7127212035073 35.68863681083226)
麺宿 志いな	3.68	新宿御苑前駅	03-6875-5594	東京都新宿区四谷4-30-15 市川ビル 1F	35.688696278864995	139.71443578059575	［月～金］11:00～16:0018:00～21:00[土・日・祝]11:00～16:0018:00～21:00	無し	13席 （厨房側カウンター6席・壁側カウンター3席・4人掛けテーブル1卓）	https://tabelog.com/tokyo/A1304/A130402/13224138/	https://tblg.k-img.com/resize/640x640c/restaurant/images/Rvw/118939/118939719.jpg?token=3a48c03&api=v2	1	0	0	POINT (139.7144357805957 35.688696278865)
らぁめん ほりうち	3.67	新宿西口駅	03-3348-5530	東京都新宿区西新宿1-4-7 高野ビル1F	35.69295748579045	139.69830636839242	[月～土]11:00～23:00(L.0)	日曜・祝日	14席 （カウンターのみ。）	https://tabelog.com/tokyo/A1304/A130401/13042962/	https://tblg.k-img.com/resize/640x640c/restaurant/images/Rvw/112143/112143395.jpg?token=50f43d0&api=v2	1	0	0	POINT (139.6983063683924 35.69295748579045)
らぁ麺 鳳仙花	3.67	新宿西口駅	050-5596-6005	東京都新宿区歌舞伎町1-24-6	35.69443292566239	139.7007183223702	11:30～23:30※スープ切れ次第、早終いあり	無休	16席 （カウンターのみ）	https://tabelog.com/tokyo/A1304/A130401/13224521/	https://tblg.k-img.com/resize/640x640c/restaurant/images/Rvw/97462/97462462.jpg?token=6c0cd99&api=v2	1	0	0	POINT (139.7007183223702 35.69443292566239)
麺屋 翔 みなと	3.67	西新宿駅	03-6304-5242	東京都新宿区西新宿1-26-2 新宿野村ビル B2F	35.69299742968319	139.69533883522894	11:00～22:00	無休（年末年始、ビル休館日等有り）	19席 （カウンター19席）	https://tabelog.com/tokyo/A1304/A130401/13226749/	https://tblg.k-img.com/resize/640x640c/restaurant/images/Rvw/94982/94982858.jpg?token=9d10dfa&api=v2	1	0	0	POINT (139.6953388352289 35.69299742968319)
ラーメン ヤスオ （【旧店名】スズキ ヤスオ）	3.67	南新宿駅	非公開	東京都渋谷区代々木2-29-3 1F	35.68396511936839	139.69859731380998	［月～金］11:30〜19:30（L.O.19:25）［土・祝］11:30～15:00（L.O.14:55）	日曜日	8席 （カウンターのみ）	https://tabelog.com/tokyo/A1304/A130403/13146213/	https://tblg.k-img.com/resize/640x640c/restaurant/images/Rvw/115042/115042745.jpg?token=fca8f92&api=v2	1	1	0	POINT (139.69859731381 35.68396511936839)
麺屋 悠 （メンヤ ユウ）	3.67	大久保駅	03-3365-5656	東京都新宿区百人町1-23-11 土田ビル別館 1F	35.69966064040907	139.6973161420052	［月・金］11:30～17:30（材料売り切れ次第終了）［火・水・木］11:30～14:00／18:00～20:00［土・祝］11:30～15:00	日曜日	8席 （カウンター8席）	https://tabelog.com/tokyo/A1304/A130404/13196234/	https://tblg.k-img.com/resize/640x640c/restaurant/images/Rvw/118478/118478127.jpg?token=574cb96&api=v2	1	0	0	POINT (139.6973161420052 35.69966064040907)
えびそば 一幻 新宿店	3.66	西武新宿駅	03-5937-4155	東京都新宿区西新宿7-8-2 福八ビル 1F	35.69548332213028	139.69804266288796	11:00～23:00	水曜	13席 （カウンターのみ）	https://tabelog.com/tokyo/A1304/A130401/13163054/	https://tblg.k-img.com/resize/640x640c/restaurant/images/Rvw/90595/90595307.jpg?token=5619f55&api=v2	1	0	0	POINT (139.698042662888 35.69548332213028)
でっかい餃子 曽さんの店 代々木店 （ソサンノミセ）	3.66	代々木駅	03-3375-1868	東京都渋谷区代々木1-33-2	35.682701708929294	139.7023492826013	11:00～翌1:00（L.O.）	年中無休	31席 （1階カウンター11席、2階テーブル20席）	https://tabelog.com/tokyo/A1304/A130403/13021680/	https://tblg.k-img.com/resize/640x640c/restaurant/images/Rvw/56543/56543132.jpg?token=5da0fa6&api=v2	1	0	0	POINT (139.7023492826013 35.68270170892929)
風来居 新宿店 （ふうらいきょ）	3.65	新宿西口駅	03-3368-3223	東京都新宿区西新宿7-19-18 セードル新宿ハイツ　１Ｆ	35.69512555541665	139.6964853086983	11:00～23:00スープが終わり次第終了いたします	無休	12席 （カウンター12席）	https://tabelog.com/tokyo/A1304/A130401/13001028/	https://tblg.k-img.com/resize/640x640c/restaurant/images/Rvw/32250/32250603.jpg?token=1ce3883&api=v2	1	0	0	POINT (139.6964853086983 35.69512555541665)
生姜醤油専門 我武者羅 代々木店	3.65	代々木駅	03-3341-4100	東京都渋谷区千駄ヶ谷5-29-7	35.68516202931934	139.70395181401136	11:00～15:0018:00～22:00	なし	16席 （カウンター12席、２人掛けテーブル２卓）	https://tabelog.com/tokyo/A1304/A130403/13212237/	https://tblg.k-img.com/resize/640x640c/restaurant/images/Rvw/81237/81237870.jpg?token=a9e7bb9&api=v2	1	0	0	POINT (139.7039518140114 35.68516202931934)
百日紅 （さるすべり）	3.64	新宿三丁目駅	03-6457-8564	東京都新宿区新宿3-4-8 新宿三和東洋ビルヂングセゾンプラザ B2	35.69091100011275	139.70530102777232	11:00〜23:00	年中無休	14席 （カウンターのみ。）	https://tabelog.com/tokyo/A1304/A130401/13116353/	https://tblg.k-img.com/resize/640x640c/restaurant/images/Rvw/56967/56967033.jpg?token=ff71a61&api=v2	1	0	0	POINT (139.7053010277723 35.69091100011275)
博多一瑞亭	3.63	新宿御苑前駅	050-5590-7772	東京都新宿区新宿1-4-12 シティ御苑ビルA館 1F	35.68824016328917	139.71138716589437	11:00～23:00（L.O.）	無し	24席	https://tabelog.com/tokyo/A1304/A130402/13194116/	https://tblg.k-img.com/resize/640x640c/restaurant/images/Rvw/51129/51129943.jpg?token=c94e3e1&api=v2	1	0	0	POINT (139.7113871658944 35.68824016328917)
味噌屋 八郎商店 新宿店	3.62	西武新宿駅	050-5594-3927	東京都新宿区西新宿7-5-5 プラザ西新宿 102	35.69635103079043	139.69842286246694	11:00～23:00（ラストオーダー　23:00）※麺・スープが無くなり次第営業終了となります。ご了承ください。	年中無休	12席 （カウンターのみ。）	https://tabelog.com/tokyo/A1304/A130401/13093862/	https://tblg.k-img.com/resize/640x640c/restaurant/images/Rvw/99001/99001872.jpg?token=f16e410&api=v2	1	0	0	POINT (139.6984228624669 35.69635103079043)
ラーメン二郎 新宿歌舞伎町店	3.62	西武新宿駅	03-3205-1726	東京都新宿区歌舞伎町2-37-5 日新ビル 1F	35.69612998746903	139.7019264772306	11:30～翌3:00	水曜日	14席 （カウンターのみ）	https://tabelog.com/tokyo/A1304/A130401/13200815/	https://tblg.k-img.com/resize/640x640c/restaurant/images/Rvw/67474/67474856.jpg?token=9d908d2&api=v2	1	0	0	POINT (139.7019264772306 35.69612998746903)
本家 第一旭 新宿店	3.62	新宿御苑前駅	03-6457-7012	東京都新宿区新宿1-13-7 東宝ビル 1F	35.689148949180165	139.71105548493162	【月曜日〜土曜日】11:00～21:00【日曜日】11:00～16:00	無休	10席	https://tabelog.com/tokyo/A1304/A130402/13229223/	https://tblg.k-img.com/resize/640x640c/restaurant/images/Rvw/102869/102869024.jpg?token=7e61c02&api=v2	1	0	0	POINT (139.7110554849316 35.68914894918017)
中華そば 流川	3.62	新宿西口駅	03-5389-4033	東京都新宿区西新宿7-9-15 新宿ダイカンプラザビジネス清田ビル 1F	35.69467285865808	139.6983515634379	11:30～23:00	無休	10席 （カウンターのみ）	https://tabelog.com/tokyo/A1304/A130401/13236258/	https://tblg.k-img.com/resize/640x640c/restaurant/images/Rvw/116498/116498343.jpg?token=a0c4b85&api=v2	1	0	0	POINT (139.6983515634379 35.69467285865808)
俺の空 新宿店	3.60	新宿西口駅	03-6302-0677	東京都新宿区西新宿1-3-13 I&Kビル 1F	35.69337553048074	139.6981198753618	11:00～22:30	無休	20席 （カウンター10席、テーブル10席）	https://tabelog.com/tokyo/A1304/A130401/13156913/	https://tblg.k-img.com/resize/640x640c/restaurant/images/Rvw/44831/44831951.jpg?token=f16b780&api=v2	1	0	0	POINT (139.6981198753618 35.69337553048074)
らあめん 満家	3.60	大久保駅	03-4405-5800	東京都新宿区百人町1-21-4	35.699900045981984	139.69655674960558	月～金 11:30～15:00／17:00～20:00 (材料が無くなり次第閉店)土曜日 11:30～15:00	日曜日・祝日	9席 （カウンターのみ）	https://tabelog.com/tokyo/A1304/A130404/13200037/	https://tblg.k-img.com/resize/640x640c/restaurant/images/Rvw/110502/110502621.jpg?token=0efeafd&api=v2	1	0	0	POINT (139.6965567496056 35.69990004598198)
煮干つけめん ラーメン凪 新宿ゴールデン街店 新館	3.60	新宿西口駅	03-6273-8706	東京都新宿区歌舞伎町1-15-8	35.69420130881392	139.70215210284786	24時間営業	なし	26席 （カウンター12席　4人テーブル×3　2人テーブル×1）	https://tabelog.com/tokyo/A1304/A130401/13232975/	https://tblg.k-img.com/resize/640x640c/restaurant/images/Rvw/117631/117631307.jpg?token=518824b&api=v2	1	0	0	POINT (139.7021521028479 35.69420130881392)
広州市場 西新宿店	3.59	新宿駅	050-5592-7645	東京都新宿区西新宿1-12	35.68951279967316	139.69711638242194	11：00～0:00	無休	36席 （カウンター8席、テーブル4人掛け2卓、地下20席）	https://tabelog.com/tokyo/A1304/A130401/13117096/	https://tblg.k-img.com/resize/640x640c/restaurant/images/Rvw/30380/30380464.jpg?token=9bbf4bd&api=v2	1	0	0	POINT (139.6971163824219 35.68951279967316)
麺匠 竹虎 本店 （めんしょう たけとら）	3.59	西武新宿駅	03-5292-5825	東京都新宿区歌舞伎町2-36-3 新宿アシベ会館	35.69576947874119	139.702399787854	11:00～翌9:00（8：30Ｌ.Ｏ）	無休	27席 （カウンター7席、6人テーブル×2、4人テーブル×2。）	https://tabelog.com/tokyo/A1304/A130401/13060368/	https://tblg.k-img.com/resize/640x640c/restaurant/images/Rvw/115209/115209209.jpg?token=d2ddc2f&api=v2	1	0	0	POINT (139.702399787854 35.69576947874119)
岐阜屋 （ギフヤ）	3.58	新宿西口駅	03-3342-6858	東京都新宿区西新宿1-2-1	35.693289077941095	139.69948611415927	[月～水・日]9:00～翌1:00[木～土]9:00～翌2:00	無休	55席 （カウンターのみ）	https://tabelog.com/tokyo/A1304/A130401/13000757/	https://tblg.k-img.com/resize/640x640c/restaurant/images/Rvw/76301/76301003.jpg?token=4694295&api=v2	1	0	0	POINT (139.6994861141593 35.6932890779411)
らすた	3.58	代々木駅	03-3373-7911	東京都渋谷区代々木1-38-10 代々木ＹＭＯビル １Ｆ	35.68265280190125	139.7010113404139	11:30～22:30	無休	10席 （カウンターのみ）	https://tabelog.com/tokyo/A1304/A130403/13019788/	https://tblg.k-img.com/resize/640x640c/restaurant/images/Rvw/56318/56318160.jpg?token=fd229ff&api=v2	1	0	0	POINT (139.7010113404139 35.68265280190125)
光来 （こうらい）	3.58	新宿西口駅	03-5330-2424	東京都新宿区西新宿7-14-12	35.69512135866485	139.69734580722601	11:00～15:00 16:30～21:00	日曜・祝日	11席 （カウンター席のみ）	https://tabelog.com/tokyo/A1304/A130401/13009180/	https://tblg.k-img.com/resize/640x640c/restaurant/images/Rvw/117996/117996041.jpg?token=9924101&api=v2	1	0	0	POINT (139.697345807226 35.69512135866485)
ローストビーフ油そば ビースト 歌舞伎町本店	3.58	西武新宿駅	0066-9713-062515	東京都新宿区歌舞伎町2-37-2 鈴木ビル 1F	35.69601333425009	139.70198203354312	11時～翌朝8時（L.O.7：30）	無休	25席	https://tabelog.com/tokyo/A1304/A130401/13187168/	https://tblg.k-img.com/resize/640x640c/restaurant/images/Rvw/43696/43696718.jpg?token=f5a80b1&api=v2	1	0	0	POINT (139.7019820335431 35.69601333425009)
麺庵ちとせ	3.94	若松河田駅	不明の為情報お待ちしております	東京都新宿区市谷台町18-5	35.694507648438176	139.7171102909119	11:30~15:00※原則昼営業のみ。祝日も営業。不定期で夜営業（18:30〜20:00）の場合あり。Twitterにてスケジュール予告あり。※2019年9月より、定休日は水曜と木曜。	水曜日と木曜日	10席 （カウンター7席、中待ち席3席）	https://tabelog.com/tokyo/A1305/A130504/13182327/	https://tblg.k-img.com/resize/640x640c/restaurant/images/Rvw/112079/112079291.jpg?token=f0f0fa6&api=v2	1	1	1	POINT (139.7171102909119 35.69450764843818)
らぁ麺やまぐち	3.87	面影橋駅	03-3204-5120	東京都新宿区西早稲田3-13-4 1F	35.710044820824244	139.71398233532855	11:30～21:00(L.O）※基本通し営業ですが稀に中休みを取る場合が御座います。Twitterかお電話にてご確認ください。	月曜日(祝日の場合は営業、翌日振替定休)　	14席 （カウンター12席とテーブル席）	https://tabelog.com/tokyo/A1305/A130504/13151200/	https://tblg.k-img.com/resize/640x640c/restaurant/images/Rvw/117468/117468906.jpg?token=526ef16&api=v2	1	1	1	POINT (139.7139823353286 35.71004482082424)
自家製中華そば としおか	3.83	早稲田駅（メトロ）	不明の為情報お待ちしております	東京都新宿区弁天町20	35.704708666475035	139.72653931593663	11:00～14:00※売り切れ次第終了	日曜	8席 （カウンターのみ）	https://tabelog.com/tokyo/A1305/A130504/13182315/	https://tblg.k-img.com/resize/640x640c/restaurant/images/Rvw/71634/71634126.jpg?token=1d9db92&api=v2	1	1	1	POINT (139.7265393159366 35.70470866647504)
麺屋 Hulu-lu （フルル）	3.78	池袋駅	050-5872-4667	東京都豊島区池袋2-60-7	35.73500678776749	139.70909714730394	【月・水・木・金・土】11:30〜15:0018:00〜21:00【日・祝】11:30～15:30	火曜	12席 （カウンター6席、テーブル6席）	https://tabelog.com/tokyo/A1305/A130501/13136428/	https://tblg.k-img.com/resize/640x640c/restaurant/images/Rvw/47594/47594696.jpg?token=bb7fedc&api=v2	1	1	1	POINT (139.7090971473039 35.73500678776749)
ラーメン巌哲 （ラーメン ガンテツ）	3.76	早稲田駅（都電）	03-6302-1281	東京都新宿区西早稲田1-10-4	35.711214555619215	139.72186496015397	【火・水・木・金・土】11:30～14:3018:00～21:00【日】11:30～15:30	月曜（※月曜祝日の場合、翌火曜と連休）	12席 （カウンター席のみ）	https://tabelog.com/tokyo/A1305/A130504/13167439/	https://tblg.k-img.com/resize/640x640c/restaurant/images/Rvw/79131/79131969.jpg?token=5b6a3b1&api=v2	1	1	0	POINT (139.721864960154 35.71121455561921)
渡なべ	3.75	西早稲田駅	03-3209-5615	東京都新宿区高田馬場2-1-4	35.711923432627785	139.7096228886632	11:00～20:00	無休	8席 （カウンター8席のみ）	https://tabelog.com/tokyo/A1305/A130503/13000121/	https://tblg.k-img.com/resize/640x640c/restaurant/images/Rvw/35936/35936699.jpg?token=637ca69&api=v2	1	1	0	POINT (139.7096228886632 35.71192343262778)
鶏そば 三歩一	3.75	高田馬場駅	03-5155-8255	東京都新宿区高田馬場2-14-9 明芳ビル１Ｆ	35.713354887222145	139.70624726976786	11:00〜15:0018:00〜23:30（L.O.23:15）※スープなくなり次第終了	不定休	12席 （カウンターのみ）	https://tabelog.com/tokyo/A1305/A130503/13134126/	https://tblg.k-img.com/resize/640x640c/restaurant/images/Rvw/27140/27140426.jpg?token=2585828&api=v2	1	1	0	POINT (139.7062472697679 35.71335488722215)
麺処 花田 池袋店	3.73	池袋駅	050-5594-4941	東京都豊島区東池袋1-23-8 東池袋ISKビル 1F	35.72930195636885	139.71562159033272	【月〜土】11:00〜23:00【日・祝】11:00〜22:00	年末年始	16席 （カウンター席のみ）	https://tabelog.com/tokyo/A1305/A130501/13109890/	https://tblg.k-img.com/resize/640x640c/restaurant/images/Rvw/74136/74136653.jpg?token=3cb553c&api=v2	1	1	0	POINT (139.7156215903327 35.72930195636885)
馳走麺 狸穴 （マミアナ）	3.73	池袋駅	03-3982-4055	東京都豊島区東池袋1-32-2 小川ビル　1F	35.73257550175649	139.71600168582316	11:00～22:00	無休	12席 （カウンターのみ。）	https://tabelog.com/tokyo/A1305/A130501/13101471/	https://tblg.k-img.com/resize/640x640c/restaurant/images/Rvw/41160/41160199.jpg?token=58b1a48&api=v2	1	1	0	POINT (139.7160016858232 35.73257550175649)
麺屋 六感堂	3.70	池袋駅	03-5952-6006	東京都豊島区東池袋2-57-2 コスモ東池袋 101	35.7330024351276	139.71798205725273	月〜金11:30～15:00 17:30〜21:00 L.O(売切次第終了)土日祝 11:30〜21:00L.O(売切次第終了)臨時休業や限定麺などの情報はTwitter 麺屋六感堂オフィシャルアカウント @Rockan_Doでご確認ください。	火曜日	9席	https://tabelog.com/tokyo/A1305/A130501/13167610/	https://tblg.k-img.com/resize/640x640c/restaurant/images/Rvw/67555/67555719.jpg?token=49fb5bf&api=v2	1	0	0	POINT (139.7179820572527 35.7330024351276)
志奈そば 田なか	3.70	向原駅	03-3988-0118	東京都豊島区東池袋2-19-2 第2八千代マンション 102	35.730854982636146	139.72345475717376	［月～金］11:00～15:00／17:00～21:00［土］11:00～15:00	日曜日	10席 （カウンターのみ）	https://tabelog.com/tokyo/A1305/A130501/13155271/	https://tblg.k-img.com/resize/640x640c/restaurant/images/Rvw/19745/19745897.jpg?token=cf5a9fe&api=v2	1	1	0	POINT (139.7234547571738 35.73085498263615)
俺の空 （おれのそら）	3.68	高田馬場駅	03-3366-0631	東京都新宿区高田馬場4-2-31	35.711296993833905	139.70292986225004	11:00～22:30	無休	12席 （カウンターのみ。）	https://tabelog.com/tokyo/A1305/A130503/13001017/	https://tblg.k-img.com/resize/640x640c/restaurant/images/Rvw/79131/79131718.jpg?token=815f813&api=v2	1	1	0	POINT (139.70292986225 35.7112969938339)
東京アンダーグラウンドラーメン 頑者 （TOKYO UNDERGROUND RAMEN 頑者）	3.68	池袋駅	03-5950-7880	東京都豊島区西池袋1-1-30 東武ホープセンター	35.73040645903826	139.7098156327747	10:00～22:00（L.O.21:30）	東武ホープセンターに準ずる (元日)	24席 （テーブル席は4人掛け×3卓、カウンターは12席）	https://tabelog.com/tokyo/A1305/A130501/13129770/	https://tblg.k-img.com/resize/640x640c/restaurant/images/Rvw/102609/102609122.jpg?token=62b5ac7&api=v2	1	1	0	POINT (139.7098156327747 35.73040645903826)
ピコピコポン	3.67	西早稲田駅	不明の為情報お待ちしております	東京都新宿区高田馬場1-3-13	35.71037915102343	139.7094890819885	［月曜日〜金曜日］ 11:00〜15:00 18:00〜22:30※変更の場合あり Twitterにて要確認	土日	10席	https://tabelog.com/tokyo/A1305/A130504/13221961/	https://tblg.k-img.com/resize/640x640c/restaurant/images/Rvw/119298/119298181.jpg?token=50ba1ed&api=v2	1	0	0	POINT (139.7094890819885 35.71037915102343)
桑ばら （【旧店名】まるきゅうらあめん）	3.66	東池袋駅	03-5952-0788	東京都豊島区東池袋1-27-5 関口ビル 1F	35.729088383122495	139.71648152874857	11:00～22:00（22時前でもスープ切れ次第終了）	無休	8席 （カウンターのみ）	https://tabelog.com/tokyo/A1305/A130501/13022925/	https://tblg.k-img.com/resize/640x640c/restaurant/images/Rvw/5572/5572794.jpg?token=688a4bd&api=v2	1	0	0	POINT (139.7164815287486 35.72908838312249)
らぁ麺 はやし田 池袋店	3.66	池袋駅	03-6907-2260	東京都豊島区東池袋1-40-10 川又ビル1F	35.73215939676647	139.71380410971256	11:00～23:00	無休	18席 （カウンターのみ）	https://tabelog.com/tokyo/A1305/A130501/13226563/	https://tblg.k-img.com/resize/640x640c/restaurant/images/Rvw/103406/103406846.jpg?token=ec96fab&api=v2	1	0	0	POINT (139.7138041097126 35.73215939676647)
鶏白湯 蔭山 高田馬場店	3.65	高田馬場駅	03-6457-3160	東京都新宿区高田馬場1-4-18	35.71142681955987	139.70965040924256	[月～土]11:00～23:00（L.O 22:30）[日・祝]11:00～22:30（L.O 22:00）	年末年始	12席 （カウンターのみ）	https://tabelog.com/tokyo/A1305/A130503/13146339/	https://tblg.k-img.com/resize/640x640c/restaurant/images/Rvw/99101/99101953.jpg?token=1f1c815&api=v2	1	0	0	POINT (139.7096504092426 35.71142681955987)
つけそば 丸長 目白店 （つけそばまるちょう）	3.65	目白駅	03-3951-4378	東京都新宿区下落合3-19-4	35.722763841208874	139.70307743772995	11:00～15:00	日曜・祝日	10席 （カウンター10席）	https://tabelog.com/tokyo/A1305/A130502/13003851/	https://tblg.k-img.com/resize/640x640c/restaurant/images/Rvw/14917/14917588.jpg?token=ecbeb3f&api=v2	1	1	0	POINT (139.7030774377299 35.72276384120887)
ソラノイロ食堂 池袋店	3.65	要町駅	050-5597-5082	東京都豊島区池袋2-22-5	35.73278889698164	139.7049489828132	[火～金]11:30～15:00(L.O.14:00)18:00～23:00(FOOD L.O.22:00/DRINK L.O22:30)[土]11:30〜22:30(FOOD L.O.21:30/DRINK L.O22:00)[日・祝]11:30～21:30(L.O.21:00)	月曜日（祝日の場合営業で火曜日休み）	32席 （カウンター10席　4人テーブル4卓　2人テーブル3卓）	https://tabelog.com/tokyo/A1305/A130501/13230677/	https://tblg.k-img.com/resize/640x640c/restaurant/images/Rvw/110394/110394791.jpg?token=9073eeb&api=v2	1	0	0	POINT (139.7049489828132 35.73278889698164)
鶏の穴	3.64	池袋駅	03-3986-2811	東京都豊島区東池袋1-39-20 慶太ビル1F	35.732603808332755	139.71464318623208	11:00～22:30(L.O 22:00)　※スープ切れ終了夏季は従業員の熱中症対策で15時～17時まで中休み(2018年)		16席 （カウンター席のみ）	https://tabelog.com/tokyo/A1305/A130501/13050789/	https://tblg.k-img.com/resize/640x640c/restaurant/images/Rvw/84087/84087029.jpg?token=3084bca&api=v2	1	0	0	POINT (139.7146431862321 35.73260380833275)
ベジポタつけ麺えん寺	3.64	池袋駅	03-3985-6405	東京都豊島区池袋2-48-2 レスタージュ池袋 1F	35.733332563566535	139.71145397309868	平日　11：30～16：00　17：30～23：00土日祝11：30～22：00スープなくなり次第終了	無休	10席 （カウンターのみ）	https://tabelog.com/tokyo/A1305/A130501/13154278/	https://tblg.k-img.com/resize/640x640c/restaurant/images/Rvw/86183/86183722.jpg?token=487506d&api=v2	1	0	0	POINT (139.7114539730987 35.73333256356653)
麺屋 まるはな	3.64	池袋駅	03-5985-4407	東京都豊島区東池袋1-23-8 東池袋ISKビル 1F	35.72929528964871	139.71557770539542	【月・水〜土】AM11:00～23:00【火】AM11:00～17:00【日・祝】　AM11:00～22:00	年末年始	10席	https://tabelog.com/tokyo/A1305/A130501/13184103/	https://tblg.k-img.com/resize/640x640c/restaurant/images/Rvw/58287/58287920.jpg?token=0f63029&api=v2	1	0	0	POINT (139.7155777053954 35.72929528964871)
カラシビ味噌らー麺 鬼金棒 池袋店	3.63	池袋駅	03-5396-4202	東京都豊島区東池袋1-13-14	35.729110582142226	139.715289126755	11:00～22:00※12/30　11：00～22：0012/31　11：00～17：001/1　　11：00～17：001/2　　11：00～22：00	無休	10席 （カウンター席のみ）	https://tabelog.com/tokyo/A1305/A130501/13171114/	https://tblg.k-img.com/resize/640x640c/restaurant/images/Rvw/84764/84764832.jpg?token=144e40f&api=v2	1	0	0	POINT (139.715289126755 35.72911058214223)
鷹流 高田馬場店 （やたいらーめんたかりゅう）	3.62	高田馬場駅	050-5589-4478	東京都新宿区高田馬場4-17-17 高田馬場プリンスマンション　１Ｆ	35.71251682172268	139.7005461151679	※平日お昼のランチはしばらくお休みいたします●月曜日定休●火曜日～金曜日　18：00～24：00●土曜日11：30～14：3017：00～24：00●日曜・祭日11：30～20：00※営業終了間際はTELにて確認をお願いします。※スープ・麺・食材等が終了したり、悪天候の場合、営業を終了する場合がございますのでご了承ください	月曜日定休日　※スープ・麺・食材等が終了したり悪天候場合、終了する場合がございますのでご了承ください。TELにて確認をお願いします。	8席 （カウンター席のみ）	https://tabelog.com/tokyo/A1305/A130503/13058985/	https://tblg.k-img.com/resize/640x640c/restaurant/images/Rvw/40420/40420320.jpg?token=a64db5e&api=v2	1	0	0	POINT (139.7005461151679 35.71251682172268)
麺処グロース （麺処ＧＲＯＷＴＨ）	3.62	池袋駅	03-5877-9678	東京都豊島区西池袋3-4-2	35.729129854194305	139.70553771349887	・11:30～15:30・＊材料切れ次第終了＊臨時休業あり(事前に店舗ブログ、Twitterにてお知らせします。)	日曜日＊臨時休業あり	7席 （カウンター7席）	https://tabelog.com/tokyo/A1305/A130501/13119520/	https://tblg.k-img.com/resize/640x640c/restaurant/images/Rvw/119723/119723616.jpg?token=6fc5d2a&api=v2	1	1	0	POINT (139.7055377134989 35.7291298541943)
麺匠いし井	3.61	高田馬場駅	03-6908-7007	東京都新宿区下落合1-3-19 第3丸条ビル 1F	35.71559626185243	139.70325324855742	【平日】 11：00～15：00／18：00～22：00まで【土曜、祝日 】11：00～15：00／18：00～21：00まで【定休日 】毎週日曜日	日曜日	12席	https://tabelog.com/tokyo/A1305/A130503/13226001/	https://tblg.k-img.com/resize/640x640c/restaurant/images/Rvw/118719/118719066.jpg?token=caa6d87&api=v2	1	1	0	POINT (139.7032532485574 35.71559626185243)
無敵家 （むてきや）	3.60	池袋駅	03-3982-7656	東京都豊島区南池袋1-17-1 崎本ビル	35.72692102984812	139.71160981090614	10:30～翌4:00	無休	16席 （カウンター16席）	https://tabelog.com/tokyo/A1305/A130501/13003927/	https://tblg.k-img.com/resize/640x640c/restaurant/images/Rvw/58673/58673296.jpg?token=803e8f6&api=v2	1	1	0	POINT (139.7116098109061 35.72692102984812)
銀座 篝 Echika池袋店	3.60	池袋駅	03-3981-3808	東京都豊島区西池袋3-28-14 エチカ池袋	35.731749882562156	139.70730272406226	11:00～23:00（L.O.22:30）	Echika池袋に準ずる	20席	https://tabelog.com/tokyo/A1305/A130501/13207980/	https://tblg.k-img.com/resize/640x640c/restaurant/images/Rvw/117381/117381393.jpg?token=977a24e&api=v2	1	0	0	POINT (139.7073027240623 35.73174988256216)
自家製熟成麺 吉岡 （ヨシオカ）	3.60	目白駅	03-5996-7155	東京都豊島区目白3-5-13 フジヤビルM2F	35.72229446435264	139.7049739083704	11:00～15:00(L.O.15:00)	不定休(年末年始、イベント出店時お休みの場合あり)	44席	https://tabelog.com/tokyo/A1305/A130502/13178865/	https://tblg.k-img.com/resize/640x640c/restaurant/images/Rvw/118439/118439709.jpg?token=846ab63&api=v2	1	0	0	POINT (139.7049739083704 35.72229446435264)
瞠 池袋店 （miharu）	3.59	池袋駅	03-3971-7974	東京都豊島区東池袋1-31-16 東商ビル３　１Ｆ	35.731839200327286	139.71650001167168	月～金11：00～15：30　　17：00～22：00土日祝11：00～22：00	無休	12席 （カウンターのみ）	https://tabelog.com/tokyo/A1305/A130501/13003877/	https://tblg.k-img.com/resize/640x640c/restaurant/images/Rvw/64881/64881866.jpg?token=f5b5afc&api=v2	1	0	0	POINT (139.7165000116717 35.73183920032729)
ラーメン二郎 池袋東口店 （らーめんじろう）	3.58	池袋駅	03-3980-0210	東京都豊島区南池袋2-27-17 １Ｆ	35.72827842357425	139.71383761895004	[火～日]11:00～23:00※お勧めの時間帯は15:00～18:00	月曜日(但し、月曜日が祝日の場合は営業。翌火曜日が休み)	13席 （カウンターのみ）	https://tabelog.com/tokyo/A1305/A130501/13003881/	https://tblg.k-img.com/resize/640x640c/restaurant/images/Rvw/61651/61651692.jpg?token=c9e2892&api=v2	1	0	0	POINT (139.71383761895 35.72827842357425)
生粋 池袋本店 （きっすい）	3.58	池袋駅	03-5950-2088	東京都豊島区池袋2-12-1 大晃第二ビル １Ｆ	35.7322442770704	139.70747129841013	[月～土]11:30～15:0018:00～22:30[日・祝]11:30～15:0017:30～21:00	火曜定休（2013年2月27日現在。しばらくの間、と掲示）	11席 （カウンターのみ。）	https://tabelog.com/tokyo/A1305/A130501/13005588/	https://tblg.k-img.com/resize/640x640c/restaurant/images/Rvw/24892/24892897.jpg?token=d2d127a&api=v2	1	0	0	POINT (139.7074712984101 35.7322442770704)
メルシー	3.58	早稲田駅（メトロ）	03-3202-4980	東京都新宿区馬場下町63	35.706527257398484	139.72061694628093	11:00～19:00	日・祝	30席 （４人掛けテーブル６卓、６人掛けテーブル１卓）	https://tabelog.com/tokyo/A1305/A130504/13000048/	https://tblg.k-img.com/resize/640x640c/restaurant/images/Rvw/88308/88308862.jpg?token=aea8cbe&api=v2	1	1	0	POINT (139.7206169462809 35.70652725739848)
さっぽろ羅偉伝 （サッポロライデン）	3.58	高田馬場駅	03-5338-8533	東京都新宿区高田馬場3-12-8 高田馬場センタービル 1F	35.71297482842021	139.70055359345906	11:00～22:00	無休	13席 （カウンター席のみ）	https://tabelog.com/tokyo/A1305/A130503/13173414/	https://tblg.k-img.com/resize/640x640c/restaurant/images/Rvw/67728/67728014.jpg?token=815e712&api=v2	1	0	0	POINT (139.7005535934591 35.71297482842021)
末廣ラーメン本舗 高田馬場分店 （すえひろらーめんほんぽ）	3.57	西早稲田駅	03-3200-2885	東京都新宿区高田馬場2-8-3	35.71190619401215	139.7085788095009	日曜～土曜、11:00～翌3:00年末年始、お盆期間も休まず営業しております。	不定休(ランチのみ休む場合もあり)	9席	https://tabelog.com/tokyo/A1305/A130504/13061478/	https://tblg.k-img.com/resize/640x640c/restaurant/images/Rvw/52309/52309233.jpg?token=842157a&api=v2	1	0	0	POINT (139.7085788095009 35.71190619401215)
環七土佐っ子ラーメン （とさっこらーめん）	3.57	池袋駅	050-5868-7451	東京都豊島区西池袋1-39-4 佐久間ビル　１Ｆ	35.732907024262296	139.70977857627685	11:45～06:00日、祝日は5:00まで11:45～17:00	無休	23席 （ 23席（カウンター3席、テーブル20席））	https://tabelog.com/tokyo/A1305/A130501/13016969/	https://tblg.k-img.com/resize/640x640c/restaurant/images/Rvw/18436/18436337.jpg?token=af2f292&api=v2	1	0	0	POINT (139.7097785762768 35.7329070242623)
道玄 （どうげん）	3.57	高田馬場駅	不明の為情報お待ちしております	東京都新宿区高田馬場4-10-14 IMAビル　1Ｆ	35.71297098563501	139.70316948749738	【月～金】18:00～22:30【土日祝日】11:30〜15:00,17:00～22:30	不定休	14席 （カウンター席のみ）	https://tabelog.com/tokyo/A1305/A130503/13095036/	https://tblg.k-img.com/resize/640x640c/restaurant/images/Rvw/2894/2894021.jpg?token=e0ada1e&api=v2	1	0	0	POINT (139.7031694874974 35.71297098563501)
焼麺　劔 （つるぎ、剣）	3.57	高田馬場駅	03-3200-5911	東京都新宿区高田馬場2-6-10 関ビル 1F	35.713466868020895	139.7090142570363	月〜土 11:00～15:00　　　 18:00～21:30 祝日営業 日曜日定休日 10/21 特別営業 11:00〜15:00 18:00〜21:30	お盆休み　年末年始あり	10席 （カウンターのみ）	https://tabelog.com/tokyo/A1305/A130503/13121750/	https://tblg.k-img.com/resize/640x640c/restaurant/images/Rvw/39788/39788767.jpg?token=7d0c00b&api=v2	1	0	0	POINT (139.7090142570363 35.71346686802089)
さんかく	3.57	目白駅	03-3565-3300	東京都豊島区目白3-2-14	35.72107905175321	139.70571556940206	[月〜土]11:30～15:00	日・祝・第一月曜	12席 （カウンター８席、４人掛けテーブル１卓）	https://tabelog.com/tokyo/A1305/A130502/13050903/	https://tblg.k-img.com/resize/640x640c/restaurant/images/Rvw/70470/70470067.jpg?token=9ee49e9&api=v2	1	0	0	POINT (139.7057155694021 35.72107905175321)
屯ちん 池袋本店 （とんちん）	3.56	池袋駅	03-3987-8556	東京都豊島区南池袋2-26-2	35.72764681398561	139.71323769785386	11:00～23:00	年中無休	17席 （カウンターのみ）	https://tabelog.com/tokyo/A1305/A130501/13003977/	https://tblg.k-img.com/resize/640x640c/restaurant/images/Rvw/92943/92943721.jpg?token=038ae05&api=v2	1	0	0	POINT (139.7132376978539 35.72764681398561)
Noodle Stand Tokyo （ヌードルスタンドトーキョー）	3.70	原宿駅	03-6804-1477	東京都渋谷区神宮前1-21-15 ナポレ原宿ビル B1F	35.67230173092641	139.70353549625366	[月～金] 11:00～16:00 18:00～21:00 [土・日・祝] 11:00～21:00	不定休	11席	https://tabelog.com/tokyo/A1306/A130601/13212545/	https://tblg.k-img.com/resize/640x640c/restaurant/images/Rvw/77101/77101004.jpg?token=ffb489a&api=v2	1	1	0	POINT (139.7035354962537 35.67230173092641)
麺屋すみす	3.69	青山一丁目駅	050-5869-4129	東京都港区南青山2-2-15 ウィン青山 1F	35.671543038708656	139.72389558431658	[平日]11:30～16:0018:00～22:00[土]11:30～16:00[祝（月曜以外）]11:30～19:00	日曜 （加え祝日の月曜　他の祝日は営業いたします。）	18席	https://tabelog.com/tokyo/A1306/A130603/13143791/	https://tblg.k-img.com/resize/640x640c/restaurant/images/Rvw/24858/24858026.jpg?token=1960d2a&api=v2	1	1	1	POINT (139.7238955843166 35.67154303870866)
AFURI 原宿 （阿夫利 あふり）	3.52	原宿駅	03-6438-1910	東京都渋谷区千駄ヶ谷3-63-1 グランデフォレスタ　１Ｆ	35.67298393870135	139.70376128434546	10:00～23:30（L.O 23:00）	無	16席 （カウンター16席）	https://tabelog.com/tokyo/A1306/A130601/13095244/	https://tblg.k-img.com/resize/640x640c/restaurant/images/Rvw/35121/35121026.jpg?token=c2c567e&api=v2	1	0	0	POINT (139.7037612843455 35.67298393870135)
南国酒家 原宿本店 （ナンゴクシュカ）	3.52	明治神宮前駅	050-5890-6163	東京都渋谷区神宮前6-35-3 コープオリンピア　１Ｆ・Ｂ１Ｆ	35.66910929219065	139.70339676587204	11:30～22:30 (L.O. 21:30)※元旦から営業いたします。	12月31日	1000席 （個室大小多数ご用意）	https://tabelog.com/tokyo/A1306/A130601/13001136/	https://tblg.k-img.com/resize/640x640c/restaurant/images/Rvw/58851/58851027.jpg?token=1183bbb&api=v2	1	1	0	POINT (139.703396765872 35.66910929219065)
一 （hajime）	3.51	明治神宮前駅	050-5872-8445	東京都渋谷区神宮前3-23-1 NODERA　BLDG　B1F	35.67083945453837	139.7073830218207	[平日・土曜日]　　11：00～21:30[日祝]11：00～19：00	無休	21席 （カウンター10席＋4席＋7席（スタッフ確認済み））	https://tabelog.com/tokyo/A1306/A130601/13125040/	https://tblg.k-img.com/resize/640x640c/restaurant/images/Rvw/104397/104397616.jpg?token=58163b6&api=v2	1	1	0	POINT (139.7073830218207 35.67083945453837)
九州じゃんがららあめん 原宿店	3.48	明治神宮前駅	03-3404-5572	東京都渋谷区神宮前1-13-21 シャンゼール原宿２号館　１Ｆ・２Ｆ	35.669592976419985	139.7034103011527	【1階の店舗】（平日）10:45～24:00（土・日・祝）10:00～24:00【2階の店舗】11:00～23:00	無休	54席	https://tabelog.com/tokyo/A1306/A130601/13001244/	https://tblg.k-img.com/resize/640x640c/restaurant/images/Rvw/56083/56083076.jpg?token=7c09a96&api=v2	1	0	0	POINT (139.7034103011527 35.66959297641998)
茂司 （シゲジ）	3.45	表参道駅	03-3404-5858	東京都港区南青山3-8-3	35.667508283992774	139.71538751042192	[月～金]11:30～15:30(L.O.15:00)19:00～22:30(L.O.22:00)[土・祝日]11:30～15:30(L.O.15:00)※夜は不定期営業です。赤い電気が付いている時は麺亭営業です。本来のふぐ、スッポンの予約が入ると貸切営業となってしまいます。お電話確認でお願いします。	日曜日	10席	https://tabelog.com/tokyo/A1306/A130602/13170172/	https://tblg.k-img.com/resize/640x640c/restaurant/images/Rvw/112738/112738765.jpg?token=466dabb&api=v2	1	1	0	POINT (139.7153875104219 35.66750828399277)
だるまや	3.44	表参道駅	03-3499-6295	東京都港区南青山5-9-5 村山ビル 1F	35.66303536606651	139.7117796826596	11:00～22:00（L.O.21:30）	日曜日、月曜日（年末年始休みあり）	35席 （カウンター7席／テーブル）	https://tabelog.com/tokyo/A1306/A130602/13002124/	https://tblg.k-img.com/resize/640x640c/restaurant/images/Rvw/38214/38214702.jpg?token=d696005&api=v2	1	1	0	POINT (139.7117796826596 35.66303536606651)
青山焼鳥倶楽部 昼の部 らーめん・つけ麺屋 （あおやまやきとりくらぶ）	3.39	表参道駅	03-3486-1973	東京都港区南青山5-10-5 第一九曜ビル B1F	35.66249263784937	139.71129363690278	月～金11:30～15:00（平日のランチタイムのみの営業です）	土・日・祝（平日のランチタイムのみの営業です）	20席	https://tabelog.com/tokyo/A1306/A130602/13164523/	https://tblg.k-img.com/resize/640x640c/restaurant/images/Rvw/80355/80355526.jpg?token=970149e&api=v2	1	0	0	POINT (139.7112936369028 35.66249263784937)
かれー麺 実之和 青山店 （かれーめん みのわ）	3.36	青山一丁目駅	03-3408-1119	東京都港区南青山1-3-6 都営アパート　１Ｆ	35.67153415020169	139.72601921987913	平日11:00～16:00ランチタイム16:00～23:30ディナータイム（L.O23時）土曜、祝日 11:00〜14:00ランチタイム17:00〜22:00ディナータイム	日曜日 祝祭日の月曜日	50席 （カウンター12席、テーブル38席）	https://tabelog.com/tokyo/A1306/A130603/13020297/	https://tblg.k-img.com/resize/640x640c/restaurant/images/Rvw/55387/55387027.jpg?token=60a2f79&api=v2	1	0	0	POINT (139.7260192198791 35.67153415020169)
蝋燭屋 表参道ヒルズ店 （SHIBIRE NOODLES 蝋燭屋）	3.36	表参道駅	03-6447-2801	東京都渋谷区神宮前4-12-10 表参道ヒルズ 3F	35.6673515213806	139.70893472020978	11:00～23:00（sun～22:00） ラストオーダー 22:00（sun 21:00）※祝日も日曜と同じく22時前に閉店してた事あり	無休		https://tabelog.com/tokyo/A1306/A130602/13234137/	https://tblg.k-img.com/resize/640x640c/restaurant/images/Rvw/119581/119581638.jpg?token=1f17f6c&api=v2	1	1	0	POINT (139.7089347202098 35.6673515213806)
麺屋 和とわ	3.29	外苑前駅	050-5594-9766	東京都港区南青山2-13-5 カーサMYビル 1F	35.67070525882024	139.72080080254293	昼 11:00～16:00(L.O.15:30)夜 18:00～22:00(L.O.21:30)	土曜日・日曜日・祝日	15席 （カウンター7席・テーブル8席）	https://tabelog.com/tokyo/A1306/A130603/13215117/	https://tblg.k-img.com/resize/640x640c/restaurant/images/Rvw/80225/80225139.jpg?token=12bbdc6&api=v2	1	1	0	POINT (139.7208008025429 35.67070525882024)
チプーン （Chipoon）	3.29	明治神宮前駅	03-6804-2123	東京都渋谷区神宮前1-11-6 ラフォーレ原宿 2F	35.66910393870433	139.70551958430462	11:00～21:00	ラフォーレ原宿に準ずる	8席	https://tabelog.com/tokyo/A1306/A130601/13229265/	https://tblg.k-img.com/resize/640x640c/restaurant/images/Rvw/98759/98759158.jpg?token=8846a66&api=v2	1	0	0	POINT (139.7055195843046 35.66910393870433)
せい家 原宿店	3.28	原宿駅	03-3796-6888	東京都渋谷区神宮前1-21-15	35.67228963870167	139.70351488433778	11:00〜翌2:30	なし	16席 （カウンター10席　6人掛けテーブル）	https://tabelog.com/tokyo/A1306/A130601/13046410/	https://tblg.k-img.com/resize/640x640c/restaurant/images/Rvw/66337/66337912.jpg?token=993d2ff&api=v2	1	0	0	POINT (139.7035148843378 35.67228963870167)
俺流塩らーめん 神宮前	3.28	明治神宮前駅	03-3486-0255	東京都渋谷区神宮前6-9-14 美鈴ビル 1F	35.667281938705436	139.70544738428651	10:00～24:00(LO24:00)	無休	30席 （カウンター10席／4人掛けテーブル5卓20席）	https://tabelog.com/tokyo/A1306/A130601/13163615/	https://tblg.k-img.com/resize/640x640c/restaurant/images/Rvw/111056/111056886.jpg?token=a358dac&api=v2	1	0	0	POINT (139.7054473842865 35.66728193870544)
梅吉	3.17	青山一丁目駅	03-5413-8187	東京都港区南青山1-10-14 斉藤ビル 1F	35.671050594170204	139.7262114484006	[月～金]11:00～15:00　17:30～22:00[土・日]11:30~15:00	不定休	18席 （カウンター８席、４人掛けテーブルｘ２、２人用（横並び席）ｘ１）	https://tabelog.com/tokyo/A1306/A130603/13174938/	https://tblg.k-img.com/resize/640x640c/restaurant/images/Rvw/118981/118981132.jpg?token=0c5349e&api=v2	1	0	0	POINT (139.7262114484006 35.6710505941702)
光麺 原宿店 （コウメン）	3.10	明治神宮前駅	03-5468-6344	東京都渋谷区神宮前6-2-8	35.667757263594524	139.7062027062003	（月）～（日）／10：30～23:00(LO22:30)　	無休	35席 （カウンター15席、テーブル20席）	https://tabelog.com/tokyo/A1306/A130601/13002516/	https://tblg.k-img.com/resize/640x640c/restaurant/images/Rvw/64691/64691034.jpg?token=0ded22d&api=v2	1	0	0	POINT (139.7062027062003 35.66775726359452)
らーめん山頭火 原宿店 （さんとうか）	3.10	明治神宮前駅	03-5464-5521	東京都渋谷区神宮前6-1-6 角田ビル　１Ｆ	35.667523123897546	139.7063129855948	11:00～23:00	無休		https://tabelog.com/tokyo/A1306/A130601/13019605/	https://tblg.k-img.com/resize/640x640c/restaurant/images/Rvw/43690/43690455.jpg?token=32c69b3&api=v2	1	0	0	POINT (139.7063129855948 35.66752312389755)
直久 新青山ビル （なおきゅう）	3.10	青山一丁目駅	03-3475-1933	東京都港区南青山1-1-1 新青山ビル西館　Ｂ１Ｆ	35.67248430407138	139.72474372650592	［月～金］11:00～22:30（L.O.22:00）［土・日・祝］11:00～21:00（L.O.20:30）	無休（ビル休館日に準ずる／年末年始休みあり）	39席	https://tabelog.com/tokyo/A1306/A130603/13029016/	https://tblg.k-img.com/resize/640x640c/restaurant/images/Rvw/118544/118544173.jpg?token=66b2eda&api=v2	1	0	0	POINT (139.7247437265059 35.67248430407138)
長崎ちゃんぽん 檜 南青山 （ヒノキ）	3.09	外苑前駅	03-6455-5019	東京都港区南青山2-19-1 大島ビル B1F	35.67014033870829	139.72002938430492	11:11～21:00(L.O.20:30)	日曜日・祝日		https://tabelog.com/tokyo/A1306/A130603/13229136/	https://tblg.k-img.com/resize/640x640c/restaurant/images/Rvw/119114/119114964.jpg?token=8f40217&api=v2	1	0	0	POINT (139.7200293843049 35.67014033870829)
一蘭 原宿店	3.08	明治神宮前駅	03-3407-5911	東京都渋谷区神宮前6-5-6 サンポウ綜合ビル2F	35.667824183837254	139.70522695082158	10:00～22:45	年中無休	36席 （味集中個室：2～4人用×1、2人用×1）	https://tabelog.com/tokyo/A1306/A130601/13125736/	https://tblg.k-img.com/resize/640x640c/restaurant/images/Rvw/115232/115232892.jpg?token=f7b716e&api=v2	1	0	0	POINT (139.7052269508216 35.66782418383725)
つけめんでんまる 南青山店	3.07	表参道駅	非公開	東京都港区南青山6-3-12	35.66069402144835	139.71587972772886	11:00～23:00（L.O.22:30）	無休	15席 （カウンターのみ）	https://tabelog.com/tokyo/A1306/A130602/13192296/	https://tblg.k-img.com/resize/640x640c/restaurant/images/Rvw/112806/112806772.jpg?token=155cd19&api=v2	1	1	0	POINT (139.7158797277289 35.66069402144835)
麺屋 こいけ	3.06	青山一丁目駅	03-6804-1918	東京都港区北青山1-4-3 青山こうゆうビル B1F	35.67238065807236	139.7221117276434	［平日］11:30〜24:00（LO）23:30［土日祝］11:30〜21:00（LO）20:45			https://tabelog.com/tokyo/A1306/A130603/13229523/	https://tblg.k-img.com/resize/640x640c/restaurant/images/Rvw/104961/104961266.jpg?token=af63bc2&api=v2	1	0	0	POINT (139.7221117276434 35.67238065807236)
元祖札幌や 青山店	3.05	外苑前駅	03-3405-7989	東京都港区北青山2-7-27	35.67170258693913	139.71706773332406	[月～日]11:00～29:00	無休		https://tabelog.com/tokyo/A1306/A130603/13044205/	https://tblg.k-img.com/resize/640x640c/restaurant/images/Rvw/23564/23564369.jpg?token=9908fc8&api=v2	1	1	0	POINT (139.7170677333241 35.67170258693913)
麺'S 原宿 （メンズ ハラジュク）	3.05	原宿駅	03-3478-5519	東京都渋谷区神宮前1-21-15 ナポレ原宿 B1F	35.672289231899455	139.70351466522573	12:00～14:00 19:00～23:00	土・日・祝	16席	https://tabelog.com/tokyo/A1306/A130601/13046995/	https://tblg.k-img.com/resize/640x640c/restaurant/images/Rvw/36921/36921214.jpg?token=f950edf&api=v2	1	0	0	POINT (139.7035146652257 35.67228923189946)
ガッツランド利久 （GUTS LAND）	3.04	外苑前駅	不明の為情報お待ちしております	東京都新宿区霞ヶ丘町3-1 神宮球場外野スタンド22番	35.67515445363557	139.71785139819718				https://tabelog.com/tokyo/A1306/A130603/13223677/	https://tblg.k-img.com/resize/640x640c/restaurant/images/Rvw/114964/114964420.jpg?token=49e7431&api=v2	1	1	0	POINT (139.7178513981972 35.67515445363557)
時田屋 （トキタヤ）	3.04	国立競技場駅	03-3401-3467	東京都渋谷区神宮前2-20-11	35.67418123870287	139.71106878435202	【昼】水、木、金のみ12:00～14:30頃【夜 】19:00～23:00頃	火曜日	20席 （カウンター5席くらい　テーブル　5.6個（4人以上席））	https://tabelog.com/tokyo/A1306/A130601/13209594/	https://tblg.k-img.com/resize/640x640c/restaurant/images/Rvw/118920/118920220.jpg?token=0ac8162&api=v2	1	0	0	POINT (139.711068784352 35.67418123870287)
弥栄亭 （ヤサカテイ）	3.04	青山一丁目駅	03-6447-2646	東京都港区南青山1-10-14 斉藤ビル 1F	35.67104948316822	139.7262108929423	11:00～15:00	日曜日、祝日		https://tabelog.com/tokyo/A1306/A130603/13160340/	https://tblg.k-img.com/resize/640x640c/restaurant/images/Rvw/118632/118632894.jpg?token=edb345b&api=v2	1	0	0	POINT (139.7262108929423 35.67104948316822)
らあめん花月嵐 青山キラー通り店	3.03	外苑前駅	03-3405-5155	東京都渋谷区神宮前3-42-3	35.67068453870599	139.71382158431516	11：00-26：00	無休	31席	https://tabelog.com/tokyo/A1306/A130603/13124497/	https://tblg.k-img.com/resize/640x640c/restaurant/images/Rvw/117282/117282994.jpg?token=b8bfb04&api=v2	1	1	0	POINT (139.7138215843152 35.67068453870599)
野方ホープ 原宿店	3.03	原宿駅	03-5474-4183	東京都渋谷区神宮前1-2-1	35.6740888093569	139.7062465777072	11:00～24:00(23:00 L.O)	なし（12月31日～1月3日は休み）	37席 （カウンター13席　テーブル12席）	https://tabelog.com/tokyo/A1306/A130601/13198903/	https://tblg.k-img.com/resize/640x640c/restaurant/images/Rvw/75667/75667831.jpg?token=bfe210d&api=v2	1	0	0	POINT (139.7062465777072 35.6740888093569)
壱角家 原宿店 （イッカクヤ）	3.03	明治神宮前駅	03-3479-2592	東京都渋谷区神宮前3-23-8 小嶋ビル 1F	35.67071391022313	139.70725776022618	[月～木・日]10:30～23:00(L.O.22:50)[金・土]10:30～翌1:00(L.O.24:50)	無休	19席	https://tabelog.com/tokyo/A1306/A130601/13171435/	https://tblg.k-img.com/resize/640x640c/restaurant/images/Rvw/100298/100298095.jpg?token=e1a070c&api=v2	1	0	0	POINT (139.7072577602262 35.67071391022313)
太陽のトマト麺withチーズ 原宿竹下通り店	3.03	明治神宮前駅	03-6804-2908	東京都渋谷区神宮前1-6-8	35.67080923870332	139.70576948432162	11:00～23:00(L.O.22:30)			https://tabelog.com/tokyo/A1306/A130601/13229770/	https://tblg.k-img.com/resize/640x640c/restaurant/images/Rvw/107830/107830962.jpg?token=5de2a99&api=v2	1	0	0	POINT (139.7057694843216 35.67080923870332)
原宿ふーちん	3.02	明治神宮前駅	03-3475-1133	東京都渋谷区神宮前4-28-7	35.66912602380671	139.7072175588963	[月～土]11：00～23：30[日]11：00～22：30	無休		https://tabelog.com/tokyo/A1306/A130601/13230476/	https://tblg.k-img.com/resize/640x640c/restaurant/images/Rvw/114687/114687430.jpg?token=fdfb044&api=v2	1	0	0	POINT (139.7072175588963 35.66912602380671)
伝丸 青山店	3.01	外苑前駅	非公開	東京都港区北青山2-7-21 青山アイアイビル　	35.67080907058425	139.71702111166607	10：30～23：00(22：30)			https://tabelog.com/tokyo/A1306/A130603/13141749/	https://tblg.k-img.com/resize/640x640c/restaurant/images/Rvw/27155/27155920.jpg?token=f1e7072&api=v2	1	0	0	POINT (139.7170211116661 35.67080907058425)
せい家 神宮球場店	3.01	外苑前駅	不明の為情報お待ちしております	東京都新宿区霞ヶ丘町3-1 明治神宮球場 内野3塁側9番10番	35.67374736003241	139.71659851147888		不定休(神宮球場に準ずる)		https://tabelog.com/tokyo/A1306/A130603/13228407/	https://tblg.k-img.com/resize/640x640c/restaurant/images/Rvw/114460/114460691.jpg?token=67ba7ba&api=v2	1	0	0	POINT (139.7165985114789 35.67374736003241)
永斗麺 原宿店	-	明治神宮前駅	03-6447-1566	東京都渋谷区神宮前4-28-26 2F	35.66967013305578	139.70726225235498				https://tabelog.com/tokyo/A1306/A130601/13236847/	https://tblg.k-img.com/images/no_photo_350x350.gif	1	0	0	POINT (139.707262252355 35.66967013305578)
俺流塩らーめん 原宿店	-	明治神宮前駅	03-6450-5008	東京都渋谷区神宮前6-29-2 助川ビル B1F	35.667838339223565	139.70466782993842	11:00～23:00	無休		https://tabelog.com/tokyo/A1306/A130601/13236506/	https://tblg.k-img.com/images/no_photo_350x350.gif	1	0	0	POINT (139.7046678299384 35.66783833922356)
楽観 NISHIAZABU GOLD	3.74	六本木駅	080-4059-6667	東京都港区西麻布1-8-12	35.66064443871593	139.72507088420556	平日・土曜・祝日11：00～22：00日曜11：00～17：00	年中無休	8席	https://tabelog.com/tokyo/A1307/A130701/13191934/	https://tblg.k-img.com/resize/640x640c/restaurant/images/Rvw/47931/47931138.jpg?token=b0cd3a6&api=v2	1	1	1	POINT (139.7250708842056 35.66064443871593)
天鳳 （てんほう）	3.65	六本木駅	03-3404-6155	東京都港区六本木7-8-5 ロック＆ロックビル　１Ｆ	35.66504101951039	139.72966532713687	[月～金] 11:00～16:3017:30～23:00 [土・祝] 11:45～16:30 17:30～21:00	日曜	20席 （カウンター6席、4人掛けテーブル４卓）	https://tabelog.com/tokyo/A1307/A130701/13001248/	https://tblg.k-img.com/resize/640x640c/restaurant/images/Rvw/65186/65186384.jpg?token=4e68f04&api=v2	1	1	0	POINT (139.7296653271369 35.66504101951039)
博多麺房 赤のれん 西麻布本店 （はかためんぼう あかのれん）	3.63	六本木駅	03-3408-4775	東京都港区西麻布3-21-24 第五中岡ビル　１Ｆ	35.65991593110971	139.7250265039147	11:00～15:0021:00～翌5:00	日曜日	20席 （カウンター8席、テーブル2席×2卓、テーブル4席×2卓）	https://tabelog.com/tokyo/A1307/A130701/13001341/	https://tblg.k-img.com/resize/640x640c/restaurant/images/Rvw/112544/112544923.jpg?token=11d94eb&api=v2	1	0	0	POINT (139.7250265039147 35.65991593110971)
かおたんラーメンえんとつ屋 南青山店 （かおたんらーめん・えんとつや）	3.63	乃木坂駅	03-3475-6337	東京都港区南青山2-34-30	35.66220538225011	139.72352652307782	[月～木]11:30～翌5:00[金・土]11:30～翌6:00	日曜日	19席	https://tabelog.com/tokyo/A1307/A130701/13001896/	https://tblg.k-img.com/resize/640x640c/restaurant/images/Rvw/94438/94438976.jpg?token=0f02139&api=v2	1	0	0	POINT (139.7235265230778 35.66220538225011)
ふるめん	3.63	六本木一丁目駅	03-3585-1616	東京都港区六本木3-4-31 六本木レジデンシーズ 1F	35.664770878018125	139.73581344008574	月曜〜金曜11:30～15:30 (L.O)18:00〜27:00 (L.O)土曜・祝日11:30〜15:30 (L.O)18:00〜22:30 (L.O)	日曜日	17席 （カウンター6席、テーブル11席）	https://tabelog.com/tokyo/A1307/A130701/13195442/	https://tblg.k-img.com/resize/640x640c/restaurant/images/Rvw/113826/113826351.jpg?token=c138069&api=v2	1	1	0	POINT (139.7358134400857 35.66477087801812)
西麻布 五行 （にしあざぶ ごぎょう）	3.62	乃木坂駅	03-5775-5566	東京都港区西麻布1-4-36 ロジマン西麻布　１Ｆ	35.66199264357229	139.72446228849046	[月～金]11:30～15:00(L.O. 14:30)17:00～翌3:00(L.O. 翌2:30)[土]11:30～16:00(L.O. 15:30)17:00～翌3:00(L.O. 翌2:30)[日・祝]11:30～16:00(L.O. 15:30)17:00～24:00(L.O. 23:30)	無休	34席	https://tabelog.com/tokyo/A1307/A130701/13005373/	https://tblg.k-img.com/resize/640x640c/restaurant/images/Rvw/30419/30419329.jpg?token=6cf2fbc&api=v2	1	0	0	POINT (139.7244622884905 35.66199264357229)
鶏そば十番156 麻布十番本店 （ICHIKORO）	3.60	麻布十番駅	03-3453-1560	東京都港区麻布十番2-1-10	35.65535772430413	139.73616356662876	11:00～翌4：00	年末年始	22席 （テーブル6席　カウンター16席）	https://tabelog.com/tokyo/A1307/A130702/13168206/	https://tblg.k-img.com/resize/640x640c/restaurant/images/Rvw/34660/34660975.jpg?token=0fc808c&api=v2	1	1	0	POINT (139.7361635666288 35.65535772430413)
新福菜館 麻布十番店 （シンプクサイカン）	3.60	麻布十番駅	03-6441-3395	東京都港区麻布十番1-2-5 富山店舗 1F	35.65675980591648	139.73669929091585	毎日11：00～23：00まで営業(L.O 22:40、2019年5月からL.O 22:30に変更) ※2019年5月からラストオーダーを22:30に変更いたします。※誠に勝手ながら食材がなくなり次第、終了とさせて頂く場合がございます。あらかじめご了承ください。お早めのご来店をお待ちしております。	無し　※ただし、年末年始はお休みをいただきます。また、店舗設備のメンテナンス等で臨時休業する場合がございます。（休業日は都度、公式ホームページに掲載いたします。）	13席 （カウンター7席、2人掛けテーブル×3(6席) ）	https://tabelog.com/tokyo/A1307/A130702/13178200/	https://tblg.k-img.com/resize/640x640c/restaurant/images/Rvw/112304/112304162.jpg?token=9af4c44&api=v2	1	1	0	POINT (139.7366992909159 35.65675980591648)
麺劇場 玄瑛 六本木店 （メンゲキジョウ ゲンエイ）	3.60	六本木駅	03-6447-4010	東京都港区六本木4-5-7	35.664725275568536	139.7328495216718	［火〜金］11:30～13:45(売切れ早仕舞あり)	土・日・月・祝日はお休み頂いております。	20席 （テーブル6席、VIPテーブル席4席、桟敷席10席）	https://tabelog.com/tokyo/A1307/A130701/13188460/	https://tblg.k-img.com/resize/640x640c/restaurant/images/Rvw/100756/100756396.jpg?token=75941e9&api=v2	1	0	0	POINT (139.7328495216718 35.66472527556854)
天雷軒 神谷町店	3.59	神谷町駅	03-6453-0321	東京都港区虎ノ門5-2-7 土井ビル　１Ｆ	35.662788744045024	139.74463085461701	[月～金]11:00～(L.O.23:00)[土]11:00～(L.O.16:00)	日曜日	21席 （カウンター6席、テーブル4席×3卓）	https://tabelog.com/tokyo/A1307/A130704/13113813/	https://tblg.k-img.com/resize/640x640c/restaurant/images/Rvw/74484/74484781.jpg?token=ebf2698&api=v2	1	1	0	POINT (139.744630854617 35.66278874404502)
中華そば専門 田中そば店 赤坂アークヒルズ店	3.52	六本木一丁目駅	03-3584-0501	東京都港区赤坂1-12-32 アーク森ビル 3F	35.6670851481457	139.74000520762888	平日11:00～23:00（L.O.22:00）土日祝11:00～22:00（L.O.21:00）	なし	18席	https://tabelog.com/tokyo/A1307/A130701/13219769/	https://tblg.k-img.com/resize/640x640c/restaurant/images/Rvw/119047/119047972.jpg?token=f748605&api=v2	1	1	0	POINT (139.7400052076289 35.6670851481457)
麺屋武蔵 虎嘯 （こしょう）	3.51	六本木駅	03-3497-0634	東京都港区六本木4-12-6 内田ビル 1F	35.664355012981154	139.73145187701581	[平日]11:00～22:30[土日・祝日]11:00～22:00[奇数月　第3日曜]11:00～20:00	無休	16席 （カウンター16席）	https://tabelog.com/tokyo/A1307/A130701/13131171/	https://tblg.k-img.com/resize/640x640c/restaurant/images/Rvw/105878/105878380.jpg?token=27f9268&api=v2	1	0	0	POINT (139.7314518770158 35.66435501298115)
楽観 青山店	3.50	乃木坂駅	050-5596-1044	東京都港区南青山1-15-19 グランドメゾン乃木坂 B1F	35.66798731741168	139.72659516868262	[全日]11:00～15:0018:00～23:00	年中無休	40席	https://tabelog.com/tokyo/A1307/A130701/13225117/	https://tblg.k-img.com/resize/640x640c/restaurant/images/Rvw/110021/110021559.jpg?token=47e4080&api=v2	1	1	0	POINT (139.7265951686826 35.66798731741168)
えびそば 一幻 六本木店	3.46	六本木駅	03-6459-2062	東京都港区六本木4-12-5 六本木144ビル 1F	35.66445194926465	139.73157825094628	11:00～翌3:00	日曜日		https://tabelog.com/tokyo/A1307/A130701/13229306/	https://tblg.k-img.com/resize/640x640c/restaurant/images/Rvw/117225/117225355.jpg?token=306717a&api=v2	1	0	0	POINT (139.7315782509463 35.66445194926465)
麺匠 竹虎 六本木店	3.44	六本木駅	050-5571-7712	東京都港区六本木3-14-14 六本木314ビル 1F	35.662498954870436	139.73415013687216	【年中無休】11:00～翌9:00	年中無休	49席 （カウンター7席、テーブル席42席）	https://tabelog.com/tokyo/A1307/A130701/13116548/	https://tblg.k-img.com/resize/640x640c/restaurant/images/Rvw/37421/37421374.jpg?token=9c878b2&api=v2	1	0	0	POINT (139.7341501368722 35.66249895487044)
蒼龍唐玉堂 六本木店 （ソウリュウトウギョクドウ）	3.44	六本木駅	03-3470-0451	東京都港区六本木7-17-16 米久ビル １Ｆ	35.66226575502278	139.72933464904486	【月～土】11:30 – 翌7:00【日・祝】11:30 – 翌5:00※年末年始、天候・シーズン等により変更する場合がございます。	無休	35席	https://tabelog.com/tokyo/A1307/A130701/13007352/	https://tblg.k-img.com/resize/640x640c/restaurant/images/Rvw/5991/5991944.jpg?token=a894d5b&api=v2	1	0	0	POINT (139.7293346490449 35.66226575502278)
AFURI 麻布十番 （阿夫利 あふり）	3.43	麻布十番駅	03-3585-1156	東京都港区麻布十番1-8-10 麻布十番TSビル 1F	35.655949871647366	139.73550276091163	11:00～翌4:00（L.O 翌3:30）	年中無休	18席 （カウンターのみ）	https://tabelog.com/tokyo/A1307/A130702/13152138/	https://tblg.k-img.com/resize/640x640c/restaurant/images/Rvw/35121/35121026.jpg?token=c2c567e&api=v2	1	0	0	POINT (139.7355027609116 35.65594987164737)
しゅういち	3.43	乃木坂駅	03-3400-6161	東京都港区西麻布2-25-22 NISHIAZABU2522ビル1F	35.65984127743079	139.7218515683993	[月～土]20:00～翌6:00	日曜・祝日	19席 （カウンター7席、テーブル2席×6卓）	https://tabelog.com/tokyo/A1307/A130701/13125632/	https://tblg.k-img.com/resize/640x640c/restaurant/images/Rvw/69008/69008244.jpg?token=fe4ebe5&api=v2	1	0	0	POINT (139.7218515683993 35.65984127743079)
太楼 広尾店	3.41	広尾駅	03-3449-8301	東京都渋谷区広尾5-4-15	35.65071617712842	139.7220067266017	11:00～23:00(月曜と火曜は21:00まで）	無休	26席 （テーブル26席）	https://tabelog.com/tokyo/A1307/A130703/13041056/	https://tblg.k-img.com/resize/640x640c/restaurant/images/Rvw/117798/117798404.jpg?token=9a54f4f&api=v2	1	1	0	POINT (139.7220067266017 35.65071617712842)
AFURI 六本木交差点 （阿夫利 あふり）	3.39	六本木駅	03-3408-8088	東京都港区六本木4-9-4 UFビル4 1F	35.663687048972314	139.73260264553215	月 〜木　11:00 - 翌5:00（L.O 翌4:30）金・土・祝前日　11:00 - 6:30（L.O 翌6:00）	無し	19席 （カウンター19席）	https://tabelog.com/tokyo/A1307/A130701/13165303/	https://tblg.k-img.com/resize/640x640c/restaurant/images/Rvw/35121/35121026.jpg?token=c2c567e&api=v2	1	0	0	POINT (139.7326026455322 35.66368704897231)
  AFURI 六本木ヒルズ （アフリ） 移転前の店舗情報です。新しい店舗はAFURI Roppongi Hillsをご参照ください。	3.39	六本木駅		東京都港区六本木6-10-1 六本木ヒルズ ノースタワー B1F	35.66039844963884	139.72904198154706	11:00～23:00（L.O 22:30）	不定休(六本木ヒルズノースタワーに準ずる)	20席 （カウンター席のみ）	https://tabelog.com/tokyo/A1307/A130701/13167723/	https://tblg.k-img.com/resize/640x640c/restaurant/images/Rvw/35121/35121026.jpg?token=c2c567e&api=v2	1	0	0	POINT (139.7290419815471 35.66039844963884)
めん蔵 （めんくら）	3.38	神谷町駅	03-3583-4456	東京都港区麻布台1-10-6	35.66030342278741	139.7428255634194	11:00～23:30日・祝は昼のみ営業の場合あり		11席 （カウンター*11）	https://tabelog.com/tokyo/A1307/A130704/13019464/	https://tblg.k-img.com/resize/640x640c/restaurant/images/Rvw/97252/97252928.jpg?token=a0cbf38&api=v2	1	0	0	POINT (139.7428255634194 35.66030342278741)
一風堂 六本木店 （いっぷうどう）	3.36	六本木駅	03-5775-7561	東京都港区六本木4-9-11 第２小田切ビル　１Ｆ	35.66375314760385	139.73229294598835	[月～木]11:00～翌4:00[金]11:00～翌5:00[日・祝]11:00～翌1:00	年中無休	28席	https://tabelog.com/tokyo/A1307/A130701/13005378/	https://tblg.k-img.com/resize/640x640c/restaurant/images/Rvw/1569/1569099.jpg?token=7fe5b50&api=v2	1	0	0	POINT (139.7322929459883 35.66375314760385)
串とろ （くしとろ）	3.34	六本木駅	03-3403-9416	東京都港区六本木7-12-3 パワーハウスビル　１Ｆ	35.66448831736536	139.7306108296164	昼 月-金 11:30～14:00 (月・火曜日はしばらくの間事情により13時30分)夜 19:00～翌3:00(ラストオーダー2:30)	日曜日祝日	20席	https://tabelog.com/tokyo/A1307/A130701/13007006/	https://tblg.k-img.com/resize/640x640c/restaurant/images/Rvw/119486/119486128.jpg?token=13d751a&api=v2	1	0	0	POINT (139.7306108296164 35.66448831736536)
澄まし処 お料理 ふくぼく	3.34	六本木駅	050-5596-9476	東京都港区六本木6-10-1 六本木ヒルズ 森タワー ウエストウォーク 5F	35.660426226871344	139.72918085762336	[月～金]11:00～15:00（L.O. 14:30）17:30～23:00（FOOD L.O. 21:30 DRINK L.O.22:00）[土・日・祝]11:00～15:00（L.O.14:30）17:00〜23:00（FOOD L.O. 21:30 DRINK L.O.22:00）	不定休	25席 （カウンター9席　4人テーブル×4）	https://tabelog.com/tokyo/A1307/A130701/13226178/	https://tblg.k-img.com/resize/640x640c/restaurant/images/Rvw/102710/102710956.jpg?token=f782ea6&api=v2	1	0	0	POINT (139.7291808576234 35.66042622687134)
一蘭 六本木店 （いちらん）	3.33	六本木駅	03-3796-7281	東京都港区六本木4-11-11 六本木ＧＭビル　２Ｆ	35.66421280767233	139.73154937546622	11:00～翌6:00	年中無休	30席	https://tabelog.com/tokyo/A1307/A130701/13003482/	https://tblg.k-img.com/resize/640x640c/restaurant/images/Rvw/4801/4801245.jpg?token=f0876d5&api=v2	1	0	0	POINT (139.7315493754662 35.66421280767233)
もくもく	3.31	広尾駅	03-3442-9489	東京都渋谷区広尾5-2-26 Ｍ２ビル広尾	35.65020383124165	139.72026762407978	ランチ :11:30～14:30(L.O.)ディナー:17:30～22:30(L.O.)★日・祝日はランチのみ	不定休	19席 （カウンター4席、テーブル5人席×1、テーブル4人席×2、2人席×1）	https://tabelog.com/tokyo/A1307/A130703/13034614/	https://tblg.k-img.com/resize/640x640c/restaurant/images/Rvw/58053/58053389.jpg?token=8fe773e&api=v2	1	0	0	POINT (139.7202676240798 35.65020383124165)
つじ田 六本木店	3.29	六本木駅	03-3408-5985	東京都港区六本木7-9-3 第1韮澤ビル1階	35.66453801968248	139.7297756189141	［月〜金］ 11：00～23：00 　　 ［土日祝］ 11：00～21：00	不定休	16席 （カウンター席のみ）	https://tabelog.com/tokyo/A1307/A130701/13230931/	https://tblg.k-img.com/resize/640x640c/restaurant/images/Rvw/119394/119394118.jpg?token=79a9cac&api=v2	1	0	0	POINT (139.7297756189141 35.66453801968248)
麻布ラーメン 麻布十番店	3.27	麻布十番駅	03-5573-5905	東京都港区麻布十番1-2-9 新一の橋ハイツ1階	35.65661463872214	139.73646718415728			19席	https://tabelog.com/tokyo/A1307/A130702/13110272/	https://tblg.k-img.com/resize/640x640c/restaurant/images/Rvw/116657/116657635.jpg?token=9957741&api=v2	1	0	0	POINT (139.7364671841573 35.65661463872214)
馬麺 （まめん）	3.27	麻布十番駅	03-3401-5953	東京都港区麻布十番1-5-12 麻布永谷マンション　１Ｆ	35.656772255879275	139.73391091080654	［月〜土］19:00〜27:00	日曜日		https://tabelog.com/tokyo/A1307/A130702/13013639/	https://tblg.k-img.com/resize/640x640c/restaurant/images/Rvw/118306/118306261.jpg?token=5f5c339&api=v2	1	0	0	POINT (139.7339109108065 35.65677225587928)
鶏龍軒	3.23	広尾駅	050-5596-3863	東京都港区南麻布4-2-38	35.64755611718658	139.72360524657392	[営業時間]11:00～15:00(14:30L.O)17:30～21:30(21:00L.O)	土曜日・日曜日・祝日	36席 （テーブル席24席・お座敷席12席）	https://tabelog.com/tokyo/A1307/A130703/13093522/	https://tblg.k-img.com/resize/640x640c/restaurant/images/Rvw/96820/96820640.jpg?token=775b729&api=v2	1	1	0	POINT (139.7236052465739 35.64755611718658)
六本木 雅 はりたや	3.22	六本木駅	03-6804-1657	東京都港区六本木4-12-6 内田ビル 1F	35.66436612355884	139.73148937339022	中華そば：11時半～(1日通して提供しております、スープが無くなったら終了)◆会員制完全予約制日本料理会席： 17時半～20時、20時半〜22時ご入会の問い合わせ先・・・info@6mh.jp◆深夜BARタイム：軽食、中華そば、個室カラオケあり 23時〜29時閉店（28時LO）	月曜日	26席 （カウンター10席、個室3部屋（4名、4名、8名））	https://tabelog.com/tokyo/A1307/A130701/13227521/	https://tblg.k-img.com/resize/640x640c/restaurant/images/Rvw/105489/105489311.jpg?token=67c4cce&api=v2	1	0	0	POINT (139.7314893733902 35.66436612355884)
天下一品 六本木店 （てんかいっぴん）	3.21	六本木駅	03-3403-8388	東京都港区六本木5-5-1 六本木ミニヨンビル　１Ｆ・２Ｆ	35.661911161284316	139.7345189570368	[月～木]11:30～翌5:00[金・土・祝前日]11:30～翌7:00[日・祝]11:30～翌1:00	無休	56席 （一階17席、二階39席）	https://tabelog.com/tokyo/A1307/A130701/13001236/	https://tblg.k-img.com/resize/640x640c/restaurant/images/Rvw/114371/114371617.jpg?token=e00bbc0&api=v2	1	0	0	POINT (139.7345189570368 35.66191116128432)
萬力屋 麻布十番店 （まんりきや）	3.21	麻布十番駅	03-3452-5510	東京都港区麻布十番2-3-2	35.65575599936133	139.73526612281964	11:30～14:30 (L.O.14:00)17:00～22:30 (L.O.22:00)		34席	https://tabelog.com/tokyo/A1307/A130702/13010627/	https://tblg.k-img.com/resize/640x640c/restaurant/images/Rvw/5919/5919895.jpg?token=b5b17ad&api=v2	1	0	0	POINT (139.7352661228196 35.65575599936133)
天下一 神谷町店	3.21	神谷町駅	03-3431-0059	東京都港区虎ノ門5-2-8	35.662766801370225	139.74459780281646	～24:00			https://tabelog.com/tokyo/A1307/A130704/13020942/	https://tblg.k-img.com/resize/640x640c/restaurant/images/Rvw/94440/94440162.jpg?token=d76d1cd&api=v2	1	0	0	POINT (139.7445978028165 35.66276680137022)
